[{"state":"NC","name":"Rodanthe, Pamlico Sound","type":"S","id":"8653215","lat":35.595,"lng":-75.4717},{"state":"NC","name":"Davis Slough","type":"S","id":"8652737","lat":35.7483,"lng":-75.5533},{"state":"","name":"Oregon Inlet","type":"S","id":"TEC2771","lat":35.76666666666701,"lng":-75.516666666667},{"state":"NC","name":"Oregon Inlet (USCG Station)","type":"R","id":"8652678","lat":35.7683,"lng":-75.5267},{"state":"NC","name":"Oregon Inlet Channel","type":"S","id":"8652657","lat":35.7733,"lng":-75.5583},{"state":"NC","name":"Oregon Inlet Bridge","type":"S","id":"8652659","lat":35.7733,"lng":-75.5383},{"state":"NC","name":"Old House Channel","type":"R","id":"8652648","lat":35.77669906616211,"lng":-75.58499908447266},{"state":"NC","name":"OREGON INLET MARINA","type":"R","id":"8652587","lat":35.795,"lng":-75.54805555555555},{"state":"NC","name":"Roanoke Sound Channel","type":"S","id":"8652591","lat":35.7983,"lng":-75.5833},{"state":"NC","name":"Roanoke Marshes Light, Croatan Sound","type":"R","id":"8652547","lat":35.8117,"lng":-75.7},{"state":"NC","name":"Oyster Creek, Croatan Sound","type":"R","id":"8652437","lat":35.845,"lng":-75.655},{"state":"NC","name":"Manns Harbor, Croatan Sound","type":"R","id":"8652247","lat":35.9033,"lng":-75.77},{"state":"NC","name":"Jennettes Pier, Nags Head (ocean)","type":"S","id":"8652226","lat":35.91,"lng":-75.5917},{"state":"NC","name":"Kitty Hawk (ocean)","type":"S","id":"8651605","lat":36.1017,"lng":-75.71},{"state":"NC","name":"DUCK PIER","type":"R","id":"8651370","lat":36.18330555555556,"lng":-75.74669444444444},{"state":"VA","name":"Sandbridge","type":"S","id":"8639428","lat":36.6917,"lng":-75.92},{"state":"VA","name":"Deep Creek Entrance","type":"S","id":"8639414","lat":36.755,"lng":-76.2933},{"state":"VA","name":"Money Point","type":"R","id":"8639348","lat":36.77830555555556,"lng":-76.30169444444445},{"state":"VA","name":"Portsmouth, Naval Shipyard","type":"R","id":"8638660","lat":36.8217,"lng":-76.2933},{"state":"VA","name":"Western Branch","type":"R","id":"8638339","lat":36.82322222222222,"lng":-76.39911111111111},{"state":"VA","name":"Rudee Heights, Lake Wesley","type":"S","id":"8639214","lat":36.825,"lng":-75.975},{"state":"VA","name":"Lake Rudee, south end","type":"S","id":"8639219","lat":36.825,"lng":-75.9817},{"state":"VA","name":"Rudee Inlet, interior channel","type":"R","id":"8639207","lat":36.8317,"lng":-75.9733},{"state":"VA","name":"Rudee Inlet entrance","type":"S","id":"8639208","lat":36.8317,"lng":-75.9683},{"state":"VA","name":"Hollidays Point (Kings Highway bridge)","type":"S","id":"8638409","lat":36.8383,"lng":-76.55},{"state":"VA","name":"Virginia Beach","type":"S","id":"8639168","lat":36.8433,"lng":-75.9717},{"state":"VA","name":"Norfolk","type":"S","id":"8638654","lat":36.8517,"lng":-76.2983},{"state":"VA","name":"Buchanan Creek entrance","type":"S","id":"8638854","lat":36.8617,"lng":-76.115},{"state":"VA","name":"Brown Cove","type":"S","id":"8638922","lat":36.875,"lng":-76.0617},{"state":"VA","name":"Town Point","type":"S","id":"8638406","lat":36.8833,"lng":-76.5083},{"state":"VA","name":"Lafayette River","type":"R","id":"8638671","lat":36.88422222222222,"lng":-76.27585833333333},{"state":"VA","name":"Craney Island Light","type":"S","id":"8638596","lat":36.8917,"lng":-76.3383},{"state":"VA","name":"Bayville","type":"S","id":"8638867","lat":36.8933,"lng":-76.105},{"state":"VA","name":"Broad Bay Canal","type":"S","id":"8638923","lat":36.9017,"lng":-76.0617},{"state":"VA","name":"Long Creek","type":"S","id":"8638916","lat":36.9033,"lng":-76.07},{"state":"VA","name":"Lynnhaven Inlet, Virginia Pilots Dock","type":"S","id":"8638888","lat":36.9067,"lng":-76.09},{"state":"VA","name":"Little Creek, NAB","type":"S","id":"8638776","lat":36.9117,"lng":-76.175},{"state":"VA","name":"Pig Point","type":"S","id":"8638514","lat":36.9167,"lng":-76.435},{"state":"VA","name":"Cape Henry","type":"S","id":"8638999","lat":36.93,"lng":-76.00669444444445},{"state":"VA","name":"HAMPTON ROADS (Sewells Point)","type":"R","id":"8638610","lat":36.94670104980469,"lng":-76.33000183105469},{"state":"VA","name":"CHESAPEAKE BAY BRIDGE TUNNEL","type":"R","id":"8638863","lat":36.9667,"lng":-76.1133},{"state":"VA","name":"Newport News","type":"S","id":"8638379","lat":36.9733,"lng":-76.4333},{"state":"VA","name":"Smithfield, Pagan River","type":"S","id":"8638418","lat":36.9833,"lng":-76.63},{"state":"VA","name":"Old Point Comfort","type":"S","id":"8638288","lat":37.0033,"lng":-76.315},{"state":"VA","name":"Huntington Park","type":"S","id":"8638401","lat":37.0133,"lng":-76.4583},{"state":"VA","name":"CBBT, CHESAPEAKE CHANNEL","type":"R","id":"8638901","lat":37.032901763916016,"lng":-76.08329772949219},{"state":"VA","name":"Burwell Bay","type":"S","id":"8638421","lat":37.0567,"lng":-76.6683},{"state":"VA","name":"Menchville","type":"S","id":"8638407","lat":37.0817,"lng":-76.525},{"state":"VA","name":"Fishermans Island","type":"S","id":"8632085","lat":37.0967,"lng":-75.9833},{"state":"VA","name":"Messick Point, Back River","type":"S","id":"8638051","lat":37.1083,"lng":-76.3183},{"state":"VA","name":"Smith Island (Coast Guard Station)","type":"S","id":"8631874","lat":37.1233,"lng":-75.9117},{"state":"VA","name":"Fort Eustis (MARAD)","type":"R","id":"8638017","lat":37.13822222222223,"lng":-76.62275},{"state":"VA","name":"Kiptopeke Beach","type":"R","id":"8632200","lat":37.16519,"lng":-75.98844444433848},{"state":"VA","name":"Scotland","type":"R","id":"8638433","lat":37.185,"lng":-76.7833},{"state":"VA","name":"Kingsmill","type":"R","id":"8638424","lat":37.22,"lng":-76.6633},{"state":"VA","name":"Jamestown","type":"R","id":"8637712","lat":37.22011111111111,"lng":-76.79141666666666},{"state":"VA","name":"Yorktown, USCG Training Center","type":"R","id":"8637689","lat":37.2265,"lng":-76.47880555555555},{"state":"VA","name":"Yorktown, Goodwin Neck","type":"S","id":"8637686","lat":37.23,"lng":-76.4367},{"state":"VA","name":"Claremont","type":"S","id":"8638449","lat":37.2317,"lng":-76.9483},{"state":"VA","name":"Old Plantation Light","type":"S","id":"8632314","lat":37.2333,"lng":-76.05},{"state":"VA","name":"Tue Marshes Light","type":"S","id":"8637663","lat":37.235,"lng":-76.385},{"state":"VA","name":"Tettington, James River","type":"R","id":"8638450","lat":37.24,"lng":-76.9433},{"state":"VA","name":"Gloucester Point","type":"R","id":"8637624","lat":37.2467,"lng":-76.5},{"state":"VA","name":"Cape Charles Harbor","type":"S","id":"8632366","lat":37.2633,"lng":-76.02},{"state":"VA","name":"Ferry Point (bridge)","type":"S","id":"8638442","lat":37.2633,"lng":-76.8767},{"state":"VA","name":"Puddledock, Appomattox River","type":"R","id":"8638489","lat":37.2667,"lng":-77.3717},{"state":"VA","name":"Oyster Harbor","type":"S","id":"8631591","lat":37.2883,"lng":-75.925},{"state":"VA","name":"Cheatham Annex","type":"S","id":"8637472","lat":37.2917,"lng":-76.5867},{"state":"VA","name":"Browns Bay","type":"S","id":"8637444","lat":37.3,"lng":-76.4},{"state":"VA","name":"Sand Shoal Inlet (Coast Guard Station)","type":"S","id":"8631542","lat":37.3017,"lng":-75.7783},{"state":"VA","name":"Sturgeon Point","type":"S","id":"8638455","lat":37.3067,"lng":-77.0067},{"state":"VA","name":"Jordan Point","type":"S","id":"8638476","lat":37.3133,"lng":-77.2233},{"state":"VA","name":"City Point, Hopewell","type":"R","id":"8638481","lat":37.3133,"lng":-77.27},{"state":"VA","name":"Willcox Wharf, Charles City","type":"R","id":"8638464","lat":37.315,"lng":-77.0983},{"state":"VA","name":"Wright Island Landing","type":"S","id":"8638441","lat":37.345,"lng":-76.875},{"state":"VA","name":"Mobjack, East River","type":"S","id":"8637199","lat":37.3733,"lng":-76.3467},{"state":"VA","name":"Haxall","type":"S","id":"8638478","lat":37.3733,"lng":-77.2433},{"state":"VA","name":"Meadowville","type":"S","id":"8638486","lat":37.3783,"lng":-77.3233},{"state":"VA","name":"Chester","type":"S","id":"8638491","lat":37.3833,"lng":-77.3783},{"state":"VA","name":"Wolf Trap Light","type":"S","id":"8637144","lat":37.39,"lng":-76.19},{"state":"VA","name":"Great Machipongo Inlet (inside)","type":"S","id":"8631411","lat":37.3933,"lng":-75.7133},{"state":"VA","name":"Lanexa, Chicahomny River","type":"R","id":"8638445","lat":37.4033,"lng":-76.9117},{"state":"VA","name":"Belleville","type":"S","id":"8637072","lat":37.4117,"lng":-76.4383},{"state":"VA","name":"Roane Point","type":"S","id":"8636969","lat":37.4467,"lng":-76.7083},{"state":"VA","name":"Richmond Deepwater Terminal, James River","type":"R","id":"8636941","lat":37.45955555555555,"lng":-77.42077777777777},{"state":"VA","name":"Upshur Neck, south end","type":"S","id":"8631287","lat":37.4667,"lng":-75.8},{"state":"VA","name":"Revel Creek, Revel Island","type":"S","id":"8631234","lat":37.4967,"lng":-75.6833},{"state":"VA","name":"Dixie","type":"S","id":"8636831","lat":37.5067,"lng":-76.4167},{"state":"VA","name":"Richmond (river locks)","type":"R","id":"8638495","lat":37.525,"lng":-77.42},{"state":"VA","name":"West Point","type":"S","id":"8636769","lat":37.535,"lng":-76.7933},{"state":"VA","name":"Rappahannock Light","type":"R","id":"8632837","lat":37.5383,"lng":-76.015},{"state":"VA","name":"Jackson Creek, Deltaville","type":"S","id":"8636735","lat":37.5483,"lng":-76.3317},{"state":"VA","name":"Gaskins Point, Occohannock Creek","type":"R","id":"8632869","lat":37.5567,"lng":-75.9167},{"state":"VA","name":"Lester Manor","type":"R","id":"8636653","lat":37.5833,"lng":-76.99},{"state":"VA","name":"Mill Creek (Grey Point)","type":"S","id":"8636654","lat":37.5833,"lng":-76.4183},{"state":"VA","name":"Windmill Point Light","type":"S","id":"8636623","lat":37.5967,"lng":-76.2367},{"state":"VA","name":"Wachapreague, Wachapreague Channel","type":"R","id":"8631044","lat":37.60777777777778,"lng":-75.68583333333333},{"state":"VA","name":"Windmill Point","type":"R","id":"8636580","lat":37.61611111111111,"lng":-76.29},{"state":"VA","name":"Northbury","type":"S","id":"8636558","lat":37.625,"lng":-77.1217},{"state":"VA","name":"Wakema (Fraziers Ferry), Mattaponi River","type":"S","id":"8636499","lat":37.65,"lng":-76.9},{"state":"VA","name":"Urbanna","type":"S","id":"8636522","lat":37.65,"lng":-76.575},{"state":"VA","name":"Harborton, Pungoteague Creek","type":"S","id":"8633091","lat":37.6667,"lng":-75.8333},{"state":"VA","name":"Millenbeck, Corrotoman River","type":"S","id":"8636458","lat":37.6683,"lng":-76.4867},{"state":"VA","name":"Metompkin Inlet","type":"S","id":"8630901","lat":37.6717,"lng":-75.595},{"state":"VA","name":"Folly Creek, Metompkin Inlet","type":"S","id":"8630839","lat":37.6967,"lng":-75.635},{"state":"VA","name":"Onancock, Onancock Creek","type":"S","id":"8633214","lat":37.7117,"lng":-75.7567},{"state":"VA","name":"Bayport","type":"S","id":"8636261","lat":37.755,"lng":-76.6733},{"state":"VA","name":"Chesconessex Creek, Schooner Bay","type":"S","id":"8633362","lat":37.7633,"lng":-75.7733},{"state":"VA","name":"Gargathy Neck","type":"S","id":"8630637","lat":37.7767,"lng":-75.5617},{"state":"VA","name":"Watts Island","type":"S","id":"8633451","lat":37.7983,"lng":-75.8967},{"state":"VA","name":"Great Wicomico River Light","type":"S","id":"8636142","lat":37.805,"lng":-76.2683},{"state":"VA","name":"Fleeton Point","type":"S","id":"8636128","lat":37.8133,"lng":-76.275},{"state":"VA","name":"Tangier Island","type":"R","id":"8633532","lat":37.8283,"lng":-75.9933},{"state":"VA","name":"Wallops Island","type":"S","id":"8630440","lat":37.8417,"lng":-75.4783},{"state":"VA","name":"Glebe Point, Great Wicomico River","type":"S","id":"8636046","lat":37.8467,"lng":-76.3683},{"state":"VA","name":"Guard Shore","type":"S","id":"8633596","lat":37.85,"lng":-75.7},{"state":"VA","name":"Muddy Creek Entrance","type":"S","id":"8633604","lat":37.855,"lng":-75.675},{"state":"VA","name":"Assateague Beach, Toms Cove","type":"S","id":"8630413","lat":37.865,"lng":-75.3683},{"state":"VA","name":"Wares Wharf","type":"R","id":"8635985","lat":37.8733,"lng":-76.7833},{"state":"VA","name":"Wishart Point, Bogues Bay","type":"S","id":"8630371","lat":37.8817,"lng":-75.4917},{"state":"VA","name":"Sunnybank, Little Wicomico River","type":"S","id":"8635959","lat":37.8867,"lng":-76.2667},{"state":"VA","name":"Southern Chincoteague Island","type":"R","id":"8630315","lat":37.902400970458984,"lng":-75.40789794921875},{"state":"VA","name":"Chincoteague Channel (south end)","type":"R","id":"8630308","lat":37.9067,"lng":-75.405},{"state":"","name":"Saxis, Starling Creek, Pocomoke Sound","type":"S","id":"8573777","lat":37.92166666666701,"lng":-75.728333333333},{"state":"","name":"Saxis, Starling Creek","type":"R","id":"8633777","lat":37.92169952392578,"lng":-75.72830200195312},{"state":"VA","name":"Tappahannock","type":"S","id":"8635881","lat":37.93,"lng":-76.8567},{"state":"VA","name":"Chincoteague Island, USCG Station","type":"R","id":"8630249","lat":37.93170166015625,"lng":-75.38330078125},{"state":"VA","name":"Chincoteague Island, Lewis Creek","type":"S","id":"8630229","lat":37.9383,"lng":-75.3733},{"state":"VA","name":"Chincoteague Island, Oyster Bay","type":"S","id":"8630225","lat":37.9417,"lng":-75.3467},{"state":"VA","name":"Chincoteague Island, Blake Cove","type":"S","id":"8630194","lat":37.9517,"lng":-75.355},{"state":"MD","name":"Ape Hole Creek, Pocomoke Sound","type":"S","id":"8571072","lat":37.961700439453125,"lng":-75.82170104980469},{"state":"MD","name":"Crisfield, Little Annemessex River","type":"R","id":"8571091","lat":37.9767,"lng":-75.8633},{"state":"MD","name":"Shelltown","type":"S","id":"8571097","lat":37.98,"lng":-75.6383},{"state":"VA","name":"Jesters Island","type":"R","id":"8630111","lat":37.9817008972168,"lng":-75.30169677734375},{"state":"MD","name":"Ewell, Smith Island","type":"R","id":"8571117","lat":37.995,"lng":-76.0317},{"state":"VA","name":"Lewisetta, Va.","type":"R","id":"8635750","lat":37.99538888888889,"lng":-76.46461111111111},{"state":"VA","name":"Travis Point, Coan River, Va.","type":"S","id":"8635762","lat":37.9967,"lng":-76.4667},{"state":"VA","name":"Franklin City","type":"S","id":"8630055","lat":38.0067,"lng":-75.3817},{"state":"VA","name":"Kinsale, Yeocomico River, Va.","type":"S","id":"8635671","lat":38.0317,"lng":-76.5767},{"state":"MD","name":"Point Lookout","type":"S","id":"8578002","lat":38.04,"lng":-76.3233},{"state":"MD","name":"Colburn Creek, Big Annemessex River","type":"S","id":"8571181","lat":38.0483,"lng":-75.8033},{"state":"MD","name":"Long Point, Big Annemessex River","type":"S","id":"8571201","lat":38.0567,"lng":-75.8033},{"state":"MD","name":"Cornfield Harbor, Md.","type":"S","id":"8577940","lat":38.06,"lng":-76.3617},{"state":"MD","name":"Holland Island Bar Light","type":"S","id":"8571214","lat":38.0683,"lng":-76.0967},{"state":"VA","name":"Saunders Wharf","type":"S","id":"8635554","lat":38.09,"lng":-77.0333},{"state":"VA","name":"Mount Holly, Nomini Creek, Va.","type":"S","id":"8635409","lat":38.0983,"lng":-76.735},{"state":"MD","name":"Teague Creek, Manokin River","type":"S","id":"8571269","lat":38.1083,"lng":-75.8383},{"state":"MD","name":"Piney Point, Md.","type":"S","id":"8578240","lat":38.1333,"lng":-76.5333},{"state":"MD","name":"Buntings Bridge","type":"R","id":"8570691","lat":38.13894444444445,"lng":-75.18352777777778},{"state":"VA","name":"Ragged Point, Coles Neck, Va.","type":"S","id":"8635485","lat":38.1417,"lng":-76.6133},{"state":"MD","name":"Public Landing","type":"R","id":"8570649","lat":38.1483,"lng":-75.285},{"state":"MD","name":"Chance","type":"S","id":"8571351","lat":38.1717,"lng":-75.945},{"state":"VA","name":"Port Royal","type":"S","id":"8635299","lat":38.1733,"lng":-77.19},{"state":"MD","name":"Snowhill, city park","type":"R","id":"8571359","lat":38.17833,"lng":-75.39666666666666},{"state":"MD","name":"Sharkfin Shoal Light","type":"S","id":"8571396","lat":38.2017,"lng":-75.9867},{"state":"VA","name":"Park Turn","type":"R","id":"8635257","lat":38.2133,"lng":-77.2433},{"state":"MD","name":"South Point, Sinepuxent Neck","type":"R","id":"8570536","lat":38.215,"lng":-75.1917},{"state":"MD","name":"Great Shoals Light, Monie Bay","type":"S","id":"8571416","lat":38.2167,"lng":-75.8833},{"state":"MD","name":"Bishops Head, Hooper Strait","type":"R","id":"8571421","lat":38.22,"lng":-76.0383},{"state":"MD","name":"Colton Point, Md.","type":"S","id":"8578465","lat":38.2233,"lng":-76.7483},{"state":"MD","name":"Hooper Strait Light","type":"S","id":"8571402","lat":38.2267,"lng":-76.0767},{"state":"VA","name":"Hopyard Landing","type":"S","id":"8635171","lat":38.2433,"lng":-77.2267},{"state":"VA","name":"Colonial Beach, Va.","type":"R","id":"8635150","lat":38.2517,"lng":-76.96},{"state":"VA","name":"Massaponax","type":"S","id":"8635154","lat":38.255,"lng":-77.41},{"state":"MD","name":"Roaring Point","type":"S","id":"8571476","lat":38.2617,"lng":-75.92},{"state":"MD","name":"Whitehaven","type":"S","id":"8571485","lat":38.2683,"lng":-75.7883},{"state":"MD","name":"Middle Hooper Island","type":"S","id":"8571519","lat":38.2967,"lng":-76.205},{"state":"MD","name":"McCreedy's Creek, Fishing Bay","type":"R","id":"8571559","lat":38.3,"lng":-76.005},{"state":"MD","name":"Solomons Island","type":"R","id":"8577330","lat":38.3172222,"lng":-76.4508333},{"state":"VA","name":"Dahlgren, Upper Machodoc Creek, Va.","type":"R","id":"8635027","lat":38.31975,"lng":-77.03661111111111},{"state":"MD","name":"OCEAN CITY (FISHING PIER)","type":"R","id":"8570280","lat":38.3267,"lng":-75.0833},{"state":"MD","name":"Mills Point (south of), Wicomico Riv., Md.","type":"S","id":"8578551","lat":38.3267,"lng":-76.8333},{"state":"MD","name":"Ocean City Inlet","type":"R","id":"8570283","lat":38.32833,"lng":-75.09166666666667},{"state":"MD","name":"Ocean City (Isle of Wight Bay)","type":"S","id":"8570282","lat":38.3317,"lng":-75.09},{"state":"MD","name":"Keydash, Isle of Wight Bay","type":"S","id":"8570255","lat":38.3417,"lng":-75.085},{"state":"MD","name":"Barren Island","type":"R","id":"8571579","lat":38.3417,"lng":-76.265},{"state":"MD","name":"Lower Cedar Point, Md.","type":"S","id":"8578693","lat":38.3417,"lng":-76.9767},{"state":"MD","name":"Salisbury, Wicomico River","type":"R","id":"8571616","lat":38.3650016784668,"lng":-75.60669708251953},{"state":"MD","name":"Riverside, Md.","type":"S","id":"8578853","lat":38.3867,"lng":-77.145},{"state":"MD","name":"Cove Point","type":"R","id":"8577188","lat":38.3917,"lng":-76.3983},{"state":"VA","name":"Mathias Point, Va.","type":"S","id":"8634892","lat":38.3983,"lng":-77.0533},{"state":"","name":"Clifton Beach, Smith Point, Md.","type":"S","id":"8578931","lat":38.41333333333299,"lng":-77.266666666667},{"state":"MD","name":"Broomes Island","type":"S","id":"8577123","lat":38.415,"lng":-76.545},{"state":"VA","name":"Aquia Creek, Va.","type":"S","id":"8634858","lat":38.4183,"lng":-77.3533},{"state":"MD","name":"Smithville Road Bridge, Beaverdam Creek","type":"R","id":"8571702","lat":38.42833,"lng":-76.23666666666666},{"state":"MD","name":"Goose Creek, Port Tobacco River, Md.","type":"S","id":"8578769","lat":38.4533,"lng":-77.0533},{"state":"MD","name":"Liverpool Point, Md.","type":"S","id":"8578984","lat":38.46,"lng":-77.27},{"state":"MD","name":"Long Beach","type":"R","id":"8577004","lat":38.465,"lng":-76.4733},{"state":"MD","name":"Taylors Island, Slaughter Creek","type":"S","id":"8571752","lat":38.4667,"lng":-76.295},{"state":"MD","name":"Vienna","type":"R","id":"8571773","lat":38.48333,"lng":-75.81833333333333},{"state":"MD","name":"Woolford, Church Creek","type":"S","id":"8571807","lat":38.5067,"lng":-76.1733},{"state":"MD","name":"Benedict","type":"S","id":"8579135","lat":38.5133,"lng":-76.67},{"state":"VA","name":"Quantico, Va.","type":"S","id":"8634689","lat":38.52,"lng":-77.2867},{"state":"MD","name":"Sharptown","type":"R","id":"8571858","lat":38.54499816894531,"lng":-75.72329711914062},{"state":"MD","name":"Cherry Island, Beckwiths Creek","type":"S","id":"8571881","lat":38.5617,"lng":-76.2083},{"state":"MD","name":"Cambridge","type":"R","id":"8571892","lat":38.5741667,"lng":-76.0722222},{"state":"","name":"Rosedale Beach, Indian River","type":"R","id":"8558814","lat":38.59149932861328,"lng":-75.21160125732422},{"state":"MD","name":"Indian Head, Md.","type":"S","id":"8579381","lat":38.6017,"lng":-77.185},{"state":"DE","name":"Indian River Inlet (Coast Guard Station)","type":"R","id":"8558690","lat":38.61,"lng":-75.07},{"state":"MD","name":"Lower Marlboro","type":"R","id":"8579542","lat":38.655,"lng":-76.68333333333334},{"state":"MD","name":"Marshall Hall, Md.","type":"S","id":"8579629","lat":38.6867,"lng":-77.1017},{"state":"MD","name":"Oxford","type":"S","id":"8572108","lat":38.6933,"lng":-76.1733},{"state":"MD","name":"Chesapeake Beach","type":"S","id":"8576363","lat":38.7,"lng":-76.5333},{"state":"MD","name":"Avalon, Dogwood Harbor","type":"S","id":"8571901","lat":38.71,"lng":-76.335},{"state":"DE","name":"Rehoboth Beach","type":"S","id":"8557863","lat":38.72,"lng":-75.0833},{"state":"MD","name":"Rose Haven","type":"S","id":"8576256","lat":38.725,"lng":-76.5417},{"state":"MD","name":"Deep Neck Point, Broad Creek","type":"S","id":"8572204","lat":38.7317,"lng":-76.235},{"state":"MD","name":"Dover Bridge","type":"S","id":"8571944","lat":38.7567,"lng":-75.9983},{"state":"MD","name":"Poplar Island","type":"R","id":"8572271","lat":38.75833333333333,"lng":-76.375},{"state":"MD","name":"Tilghman Island, Ferry Cove, Eastern Bay","type":"S","id":"8571979","lat":38.765,"lng":-76.3283},{"state":"MD","name":"Easton Point","type":"S","id":"8572296","lat":38.7683,"lng":-76.095},{"state":"MD","name":"St. Michaels, San Domingo Creek","type":"S","id":"8572313","lat":38.775,"lng":-76.2333},{"state":"DE","name":"LEWES (BREAKWATER HARBOR)","type":"R","id":"8557380","lat":38.781700134277344,"lng":-75.12000274658203},{"state":"MD","name":"St. Michaels, Miles River","type":"S","id":"8572342","lat":38.7867,"lng":-76.2217},{"state":"VA","name":"Alexandria, Va.","type":"S","id":"8634214","lat":38.805,"lng":-77.0383},{"state":"DC","name":"Bellevue, D.C.","type":"S","id":"8590111","lat":38.8267,"lng":-77.0267},{"state":"MD","name":"Kent Point Marina","type":"R","id":"8572467","lat":38.8367,"lng":-76.3733},{"state":"MD","name":"Claiborne, Eastern Bay","type":"S","id":"8572468","lat":38.8367,"lng":-76.28},{"state":"MD","name":"Galesville, West River","type":"S","id":"8575923","lat":38.8417,"lng":-76.54},{"state":"DC","name":"Washington Naval Yard","type":"S","id":"8593005","lat":38.8717,"lng":-76.995},{"state":"DC","name":"WASHINGTON, Washington Channel, D.C.","type":"R","id":"8594900","lat":38.87329864501953,"lng":-77.02169799804688},{"state":"MD","name":"Rhode River (County Wharf)","type":"S","id":"8575787","lat":38.8867,"lng":-76.54},{"state":"DC","name":"Kingman Lake","type":"S","id":"8593545","lat":38.895,"lng":-76.9683},{"state":"MD","name":"Thomas Point Shoal Light","type":"S","id":"8575737","lat":38.9,"lng":-76.4333},{"state":"DC","name":"Kenilworth Aquatic Garden","type":"S","id":"8593909","lat":38.91,"lng":-76.955},{"state":"MD","name":"Hillsboro, Tuckahoe Creek","type":"R","id":"8572669","lat":38.9167,"lng":-75.945},{"state":"NJ","name":"Cape May, Atlantic Ocean","type":"S","id":"8535962","lat":38.93,"lng":-74.935},{"state":"MD","name":"Bladensburg, Md.","type":"R","id":"8579997","lat":38.9333,"lng":-76.9383},{"state":"DE","name":"Mispillion River entrance","type":"S","id":"8556198","lat":38.945,"lng":-75.3133},{"state":"NJ","name":"Cape Island Creek, Cape May","type":"S","id":"8535902","lat":38.9467,"lng":-74.9133},{"state":"NJ","name":"Cape May Point, Sunset Beach","type":"S","id":"8536021","lat":38.9467,"lng":-74.9717},{"state":"NJ","name":"Cape May Harbor","type":"S","id":"8535901","lat":38.9483,"lng":-74.8917},{"state":"MD","name":"Edgewater, South River","type":"S","id":"8575579","lat":38.95,"lng":-76.55},{"state":"MD","name":"Matapeake, Kent Island","type":"R","id":"8572770","lat":38.9567,"lng":-76.355},{"state":"MD","name":"Gingerville Creek, South River","type":"S","id":"8575550","lat":38.9583,"lng":-76.555},{"state":"MD","name":"Kent Island Narrows","type":"S","id":"8572792","lat":38.9667,"lng":-76.2433},{"state":"NJ","name":"Cape May, ferry terminal","type":"R","id":"8536110","lat":38.968299865722656,"lng":-74.95999908447266},{"state":"NJ","name":"Wildwood Crest, ocean pier","type":"R","id":"8535835","lat":38.975,"lng":-74.8233},{"state":"NJ","name":"Wildwood Crest, Sunset Lake","type":"S","id":"8535838","lat":38.9783,"lng":-74.8367},{"state":"NJ","name":"Swain Channel, Taylor Sound","type":"S","id":"8535805","lat":38.98,"lng":-74.8633},{"state":"MD","name":"Annapolis (US Naval Academy)","type":"R","id":"8575512","lat":38.98328,"lng":-76.4815555551317},{"state":"DE","name":"Brandywine Shoal Light","type":"R","id":"8555889","lat":38.986698150634766,"lng":-75.11329650878906},{"state":"MD","name":"Queenstown","type":"S","id":"8572867","lat":38.9967,"lng":-76.1583},{"state":"NJ","name":"West Wildwood, Grassy Sound","type":"S","id":"8535726","lat":39.005,"lng":-74.8267},{"state":"NJ","name":"Old Turtle Thorofare, RR. bridge","type":"S","id":"8535695","lat":39.0183,"lng":-74.8417},{"state":"NJ","name":"North Highlands Beach","type":"S","id":"8536271","lat":39.0183,"lng":-74.9533},{"state":"MD","name":"Brewer Point","type":"S","id":"8575331","lat":39.0267,"lng":-76.5333},{"state":"NJ","name":"Nummy Island, Grassy Sound Channel","type":"S","id":"8535661","lat":39.0283,"lng":-74.8017},{"state":"MD","name":"Love Point","type":"R","id":"8572955","lat":39.0317,"lng":-76.3017},{"state":"MD","name":"Centreville Landing, Corsica River","type":"S","id":"8573006","lat":39.0533,"lng":-76.075},{"state":"NJ","name":"Stone Harbor, Great Channel","type":"R","id":"8535581","lat":39.05670166015625,"lng":-74.76499938964844},{"state":"DE","name":"Murderkill River entrance","type":"S","id":"8555388","lat":39.0583,"lng":-75.3967},{"state":"MD","name":"Mountain Point, Magothy River","type":"S","id":"8575229","lat":39.0617,"lng":-76.4333},{"state":"NJ","name":"Dias Creek, Route 47 bridge","type":"S","id":"8536449","lat":39.0833,"lng":-74.8867},{"state":"MD","name":"Cornfield Creek, Magothy River","type":"S","id":"8575109","lat":39.1,"lng":-76.445},{"state":"NJ","name":"Long Reach, Ingram Thorofare","type":"S","id":"8535451","lat":39.1017,"lng":-74.755},{"state":"MD","name":"Cliffs Point","type":"S","id":"8573125","lat":39.1067,"lng":-76.1417},{"state":"NJ","name":"Ingram Thorofare","type":"S","id":"8535419","lat":39.11,"lng":-74.7383},{"state":"MD","name":"Cliffs Wharf","type":"S","id":"8573137","lat":39.11,"lng":-76.1383},{"state":"NJ","name":"Bidwell Creek, Route 47 bridge","type":"S","id":"8536551","lat":39.1183,"lng":-74.8683},{"state":"NJ","name":"Stites Sound","type":"S","id":"8535357","lat":39.12,"lng":-74.755},{"state":"NJ","name":"Ocean Drive bridge","type":"R","id":"8535375","lat":39.1217,"lng":-74.7167},{"state":"NJ","name":"Bidwell Creek entrance","type":"R","id":"8536581","lat":39.1283,"lng":-74.8917},{"state":"MD","name":"Deep Landing, Swan Creek","type":"S","id":"8573211","lat":39.145,"lng":-76.26},{"state":"NJ","name":"Townsend Sound","type":"S","id":"8535309","lat":39.1467,"lng":-74.75},{"state":"NJ","name":"Sluice Creek, Route 47 bridge, Dennis Creek","type":"S","id":"8536687","lat":39.1617,"lng":-74.8317},{"state":"MD","name":"Stony Creek","type":"S","id":"8574931","lat":39.1633,"lng":-76.5267},{"state":"NJ","name":"Ludlam Bay, west side","type":"S","id":"8535221","lat":39.1767,"lng":-74.71},{"state":"NJ","name":"Dennis Creek, 2.5 n.mi. above entrance","type":"S","id":"8536736","lat":39.1783,"lng":-74.8517},{"state":"NJ","name":"Dennis Creek, Route 47 bridge","type":"S","id":"8536752","lat":39.1833,"lng":-74.8217},{"state":"DE","name":"Mahon River entrance","type":"R","id":"8554399","lat":39.185,"lng":-75.4},{"state":"NJ","name":"West Creek, 0.7 n.mi. above entrance","type":"S","id":"8536764","lat":39.1883,"lng":-74.915},{"state":"MD","name":"North Point","type":"S","id":"8574857","lat":39.1967,"lng":-76.445},{"state":"NJ","name":"Strathmere, Strathmere Bay","type":"S","id":"8535163","lat":39.2,"lng":-74.6567},{"state":"NJ","name":"East Point, Maurice River Cove","type":"S","id":"8536780","lat":39.2,"lng":-75.02},{"state":"NJ","name":"Riggins Ditch, 0.5 n.mi. above entrance","type":"S","id":"8536801","lat":39.2,"lng":-74.97},{"state":"MD","name":"Chestertown","type":"S","id":"8573343","lat":39.2067,"lng":-76.0633},{"state":"NJ","name":"East Creek, Route 47 bridge","type":"S","id":"8536823","lat":39.2083,"lng":-74.9017},{"state":"MD","name":"Hawkins Point","type":"S","id":"8574821","lat":39.2083,"lng":-76.5333},{"state":"MD","name":"Tolchester Beach","type":"R","id":"8573364","lat":39.21344444444444,"lng":-76.24453055555556},{"state":"NJ","name":"Middle Thorofare, Ocean Drive bridge","type":"S","id":"8535101","lat":39.215,"lng":-74.6483},{"state":"NJ","name":"Fishing Creek entrance","type":"S","id":"8536848","lat":39.2167,"lng":-75.1583},{"state":"NJ","name":"Dividing Creek entrance","type":"S","id":"8536849","lat":39.2167,"lng":-75.1033},{"state":"NJ","name":"West Creek, Route 47 bridge","type":"S","id":"8536851","lat":39.2167,"lng":-74.925},{"state":"NJ","name":"Riggins Ditch, Heislerville","type":"S","id":"8536855","lat":39.2183,"lng":-74.98},{"state":"","name":"Bivalve, Maurice River","type":"R","id":"8535055","lat":39.23249816894531,"lng":-75.03279876708984},{"state":"NJ","name":"Fortescue Creek","type":"R","id":"8536931","lat":39.2383,"lng":-75.175},{"state":"DE","name":"Leipsic, Leipsic River","type":"S","id":"8554038","lat":39.245,"lng":-75.5183},{"state":"MD","name":"Crumpton","type":"R","id":"8573349","lat":39.245,"lng":-75.925},{"state":"NJ","name":"Cedar Swamp Creek, Tuckahoe River","type":"S","id":"8535001","lat":39.2467,"lng":-74.7183},{"state":"NJ","name":"Weir Creek bridge, Dividing Creek","type":"S","id":"8536935","lat":39.25,"lng":-75.1283},{"state":"MD","name":"Fort McHenry Marsh","type":"R","id":"8574683","lat":39.2617,"lng":-76.585},{"state":"MD","name":"BALTIMORE, Fort McHenry","type":"R","id":"8574680","lat":39.26667,"lng":-76.57833333333333},{"state":"NJ","name":"Hollywood Beach, The Glades","type":"S","id":"8537026","lat":39.275,"lng":-75.1417},{"state":"NJ","name":"Money Island, Nantuxent Creek entrance","type":"S","id":"8537052","lat":39.285,"lng":-75.2383},{"state":"NJ","name":"Mauricetown","type":"S","id":"8537059","lat":39.285,"lng":-74.9917},{"state":"NJ","name":"Beesleys Point","type":"S","id":"8534975","lat":39.2883,"lng":-74.6283},{"state":"NJ","name":"Newport Landing, Nantuxent Creek","type":"S","id":"8537079","lat":39.2917,"lng":-75.1983},{"state":"NJ","name":"Tuckahoe, Tuckahoe River","type":"R","id":"8534883","lat":39.295,"lng":-74.7483},{"state":"MD","name":"Worton Creek entrance","type":"S","id":"8573442","lat":39.2967,"lng":-76.1717},{"state":"NJ","name":"Cedar Creek entrance, Nantuxent Cove","type":"S","id":"8537101","lat":39.2983,"lng":-75.2467},{"state":"NJ","name":"Back Creek entrance, Nantuxent Cove","type":"S","id":"8537116","lat":39.305,"lng":-75.2783},{"state":"NJ","name":"Ship John Shoal","type":"R","id":"8537121","lat":39.30500030517578,"lng":-75.375},{"state":"NJ","name":"Longport (inside), Great Egg Harbor Inlet","type":"R","id":"8534836","lat":39.3083,"lng":-74.5333},{"state":"NJ","name":"Port Elizabeth, Manumuskin River","type":"S","id":"8537147","lat":39.3133,"lng":-74.985},{"state":"DE","name":"Woodland Beach, Del.","type":"S","id":"8553501","lat":39.3333,"lng":-75.4667},{"state":"NJ","name":"Ventnor City, ocean pier","type":"R","id":"8534770","lat":39.335,"lng":-74.4767},{"state":"NJ","name":"Steelmanville, Patcong Ck., 2.5 nm above ent.","type":"S","id":"8534778","lat":39.335,"lng":-74.5967},{"state":"NJ","name":"Menantico Creek entrance","type":"S","id":"8537242","lat":39.3433,"lng":-75.0083},{"state":"NJ","name":"Dock Thorofare, Risley Channel","type":"S","id":"8534739","lat":39.3517,"lng":-74.54},{"state":"NJ","name":"ATLANTIC CITY, OCEAN","type":"R","id":"8534720","lat":39.355,"lng":-74.4183},{"state":"NJ","name":"River Bend Marina, Great Egg Harbor River","type":"S","id":"8534691","lat":39.3683,"lng":-74.7167},{"state":"MD","name":"Sassafras River, Betterton","type":"R","id":"8573704","lat":39.3717,"lng":-76.0633},{"state":"NJ","name":"Tindalls Wharf, Cohansey River","type":"S","id":"8537353","lat":39.3783,"lng":-75.235},{"state":"NJ","name":"Pleasantville, Lakes Bay, Great Egg Harbor Inlet","type":"S","id":"8534657","lat":39.3817,"lng":-74.5183},{"state":"NJ","name":"Greenwich Pier, Cohansey River","type":"S","id":"8537374","lat":39.3833,"lng":-75.35},{"state":"NJ","name":"Absecon Channel, State Route 87 bridge","type":"S","id":"8534638","lat":39.385,"lng":-74.425},{"state":"MD","name":"Pond Point, Bush River","type":"R","id":"8574459","lat":39.3883,"lng":-76.255},{"state":"NJ","name":"Millville","type":"S","id":"8537359","lat":39.3917,"lng":-75.0417},{"state":"DE","name":"Taylors Bridge, Blackbird Creek, Del.","type":"S","id":"8553069","lat":39.405,"lng":-75.5983},{"state":"NJ","name":"Stathems Neck, Stow Creek, N.J.","type":"S","id":"8537416","lat":39.4067,"lng":-75.405},{"state":"NJ","name":"Pine Island, Malapartis Creek, N.J.","type":"S","id":"8537488","lat":39.4217,"lng":-75.4283},{"state":"NJ","name":"Raccoon Ditch, Newport Meadows, Stow Creek, N.J.","type":"S","id":"8537489","lat":39.4217,"lng":-75.3817},{"state":"NJ","name":"Absecon, Absecon Creek, U.S. Hwy. 30 bridge","type":"S","id":"8534540","lat":39.4233,"lng":-74.5},{"state":"NJ","name":"1 n.mi. above entrance, N.J.","type":"S","id":"8537535","lat":39.4317,"lng":-75.4467},{"state":"NJ","name":"Brigantine Channel @ Hoffman Thorofare","type":"S","id":"8534496","lat":39.435,"lng":-74.3633},{"state":"NJ","name":"Mays Landing, Great Egg Harbor River","type":"R","id":"8534468","lat":39.4483,"lng":-74.7283},{"state":"NJ","name":"Hope Creek, 0.6 n.mi. above entrance, N.J.","type":"S","id":"8537667","lat":39.4583,"lng":-75.495},{"state":"NJ","name":"Artificial Island, Salem Nuclear Plant, N.J.","type":"S","id":"8537614","lat":39.46,"lng":-75.5317},{"state":"NJ","name":"Canton, Stow Creek, N.J.","type":"S","id":"8537562","lat":39.4617,"lng":-75.4033},{"state":"NJ","name":"Main Marsh Thorofare","type":"S","id":"8534393","lat":39.4783,"lng":-74.3833},{"state":"NJ","name":"0.8 n.mi. above entrance","type":"S","id":"8537731","lat":39.4967,"lng":-75.5167},{"state":"MD","name":"Town Point Wharf","type":"R","id":"8573903","lat":39.5033,"lng":-75.9167},{"state":"NJ","name":"2.5 n.mi. above entrance","type":"S","id":"8537753","lat":39.505,"lng":-75.4833},{"state":"NJ","name":"Tuckerton, Shooting Thorofare, Little Egg Inlet","type":"R","id":"8534319","lat":39.50830078125,"lng":-74.32499694824219},{"state":"NJ","name":"Abbots Meadow","type":"S","id":"8537774","lat":39.5117,"lng":-75.4933},{"state":"NJ","name":"Coopers Creek bridge","type":"S","id":"8537779","lat":39.5133,"lng":-75.4467},{"state":"NJ","name":"Seven Island, Newmans Thorofare","type":"S","id":"8534296","lat":39.5167,"lng":-74.3367},{"state":"NJ","name":"Little Sheepshead Creek","type":"S","id":"8534287","lat":39.5217,"lng":-74.32},{"state":"MD","name":"Chesapeake City, Maryland","type":"R","id":"8573927","lat":39.5267,"lng":-75.81},{"state":"DE","name":"Summit Bridge, Delaware","type":"S","id":"8552125","lat":39.5333,"lng":-75.7333},{"state":"NJ","name":"Nacote Creek, U.S. Highway 9 bridge","type":"S","id":"8534256","lat":39.535,"lng":-74.4633},{"state":"MD","name":"Havre de Grace","type":"R","id":"8574070","lat":39.5367,"lng":-76.09},{"state":"NJ","name":"Graveling Point","type":"S","id":"8534244","lat":39.54,"lng":-74.3867},{"state":"NJ","name":"Beach Haven Coast Guard Station","type":"S","id":"8534208","lat":39.5483,"lng":-74.2567},{"state":"NJ","name":"Chestnut Neck Boat Yard","type":"S","id":"8534212","lat":39.5483,"lng":-74.4617},{"state":"NJ","name":"Quinton","type":"S","id":"8537889","lat":39.5483,"lng":-75.415},{"state":"DE","name":"St. Georges, Delaware","type":"S","id":"8551973","lat":39.555,"lng":-75.6483},{"state":"DE","name":"REEDY POINT","type":"R","id":"8551910","lat":39.55830001831055,"lng":-75.57330322265625},{"state":"NJ","name":"Sinnickson Landing","type":"S","id":"8537961","lat":39.57,"lng":-75.4983},{"state":"DE","name":"Delaware City Branch Channel bridge","type":"S","id":"8551851","lat":39.57,"lng":-75.59},{"state":"MD","name":"Charlestown, Northeast River","type":"S","id":"8573968","lat":39.5733,"lng":-75.97},{"state":"MD","name":"Old Frenchtown Wharf","type":"S","id":"8573969","lat":39.575,"lng":-75.8433},{"state":"NJ","name":"Tuckerton Creek entrance","type":"S","id":"8534139","lat":39.5767,"lng":-74.3317},{"state":"NJ","name":"Salem","type":"S","id":"8537979","lat":39.5767,"lng":-75.4767},{"state":"DE","name":"Delaware City","type":"R","id":"8551762","lat":39.58169937133789,"lng":-75.58830261230469},{"state":"DE","name":"Pea Patch Island, Bulkhead Shoal Channel, Del.","type":"S","id":"8551702","lat":39.5833,"lng":-75.5733},{"state":"NJ","name":"New Gretna, Bass River","type":"S","id":"8534104","lat":39.5917,"lng":-74.4417},{"state":"NJ","name":"Tuckerton, Tuckerton Creek","type":"S","id":"8534080","lat":39.6017,"lng":-74.3417},{"state":"MD","name":"Port Deposit","type":"S","id":"8574008","lat":39.6033,"lng":-76.1133},{"state":"NJ","name":"Green Bank","type":"S","id":"8534117","lat":39.6117,"lng":-74.59},{"state":"NJ","name":"Westecunk Creek entrance","type":"S","id":"8534044","lat":39.6133,"lng":-74.2633},{"state":"NJ","name":"Beach Haven Crest","type":"S","id":"8534048","lat":39.6133,"lng":-74.21},{"state":"NJ","name":"Parker Run, upper end","type":"S","id":"8534049","lat":39.6167,"lng":-74.31},{"state":"NJ","name":"Wading River (town), Wading River","type":"S","id":"8534043","lat":39.6183,"lng":-74.4967},{"state":"NJ","name":"Sweetwater, Mullica River Marina","type":"S","id":"8534002","lat":39.625,"lng":-74.6417},{"state":"NJ","name":"West Creek, Westecunk Creek","type":"S","id":"8533987","lat":39.6317,"lng":-74.2967},{"state":"NJ","name":"Manahawkin Drawbridge","type":"S","id":"8533935","lat":39.6533,"lng":-74.185},{"state":"NJ","name":"Cedar Run","type":"S","id":"8533941","lat":39.6533,"lng":-74.2567},{"state":"NJ","name":"Dinner Point Creek, upper end","type":"S","id":"8533982","lat":39.6567,"lng":-74.27},{"state":"DE","name":"New Castle, Delaware","type":"S","id":"8551201","lat":39.6567,"lng":-75.5617},{"state":"NJ","name":"Mill Creek, 1 n.mi. above entrance","type":"S","id":"8533905","lat":39.665,"lng":-74.2317},{"state":"NJ","name":"Manahawkin Creek","type":"S","id":"8533909","lat":39.6667,"lng":-74.215},{"state":"NJ","name":"North Beach","type":"S","id":"8533862","lat":39.675,"lng":-74.16},{"state":"NJ","name":"Salem Canal entrance, N.J.","type":"S","id":"8538231","lat":39.6833,"lng":-75.51},{"state":"NJ","name":"Flat Creek","type":"S","id":"8533780","lat":39.7067,"lng":-74.1917},{"state":"NJ","name":"Auburn, Oldmans Creek, N.J.","type":"S","id":"8538274","lat":39.715,"lng":-75.36},{"state":"DE","name":"Wilmington Marine Terminal","type":"S","id":"8550714","lat":39.7183,"lng":-75.52},{"state":"NJ","name":"Loveladies Harbor","type":"S","id":"8533738","lat":39.725,"lng":-74.1367},{"state":"DE","name":"Millside, RR. bridge","type":"S","id":"8550658","lat":39.725,"lng":-75.56},{"state":"NJ","name":"Double Creek","type":"S","id":"8533665","lat":39.745,"lng":-74.2017},{"state":"DE","name":"Edgemoor, Del.","type":"S","id":"8550438","lat":39.75,"lng":-75.4933},{"state":"NJ","name":"High Bar","type":"S","id":"8533631","lat":39.7567,"lng":-74.1283},{"state":"NJ","name":"Barnegat Inlet, USCG Station","type":"R","id":"8533615","lat":39.7617,"lng":-74.1117},{"state":"NJ","name":"Pedricktown, Oldmans Creek, N.J.","type":"S","id":"8538369","lat":39.7617,"lng":-75.4033},{"state":"NJ","name":"Island Beach, Sedge Islands","type":"S","id":"8533535","lat":39.7883,"lng":-74.0983},{"state":"NJ","name":"Waretown","type":"S","id":"8533541","lat":39.7917,"lng":-74.1817},{"state":"NJ","name":"Mantua, Mantua Creek, N.J.","type":"S","id":"8538438","lat":39.795,"lng":-75.1767},{"state":"NJ","name":"Bridgeport, Raccoon Creek, N.J.","type":"S","id":"8538449","lat":39.8067,"lng":-75.355},{"state":"NJ","name":"Oyster Creek","type":"S","id":"8533465","lat":39.8083,"lng":-74.1883},{"state":"PA","name":"Marcus Hook, Pa.","type":"R","id":"8540433","lat":39.8116667,"lng":-75.4094444},{"state":"NJ","name":"Forked River","type":"S","id":"8533391","lat":39.825,"lng":-74.1733},{"state":"NJ","name":"Paulsboro, Mantua Creek, N.J.","type":"R","id":"8538512","lat":39.835,"lng":-75.2383},{"state":"NJ","name":"Stouts Creek","type":"S","id":"8533365","lat":39.845,"lng":-74.1517},{"state":"NJ","name":"Billingsport, N.J.","type":"S","id":"8538552","lat":39.85,"lng":-75.25},{"state":"NJ","name":"Island Beach","type":"S","id":"8533345","lat":39.8517,"lng":-74.0883},{"state":"NJ","name":"Woodbury Creek, N.J.","type":"S","id":"8538548","lat":39.86,"lng":-75.1867},{"state":"NJ","name":"Cedar Creek","type":"S","id":"8533295","lat":39.87,"lng":-74.155},{"state":"NJ","name":"Westville, Rt. 47 bridge, Big Timber Creek, N.J.","type":"S","id":"8538601","lat":39.8733,"lng":-75.1233},{"state":"PA","name":"Wanamaker Bridge","type":"S","id":"8542425","lat":39.8767,"lng":-75.305},{"state":"PA","name":"Tinicum National Wildlife Refuge","type":"S","id":"8542885","lat":39.8783,"lng":-75.2767},{"state":"PA","name":"Norwood City","type":"S","id":"8542699","lat":39.88,"lng":-75.29},{"state":"PA","name":"Tinicum National Wildlife Refuge","type":"S","id":"8543024","lat":39.8867,"lng":-75.265},{"state":"PA","name":"Penrose Avenue Bridge","type":"S","id":"8543925","lat":39.8983,"lng":-75.2117},{"state":"NJ","name":"Sloop Creek","type":"S","id":"8533185","lat":39.905,"lng":-74.1333},{"state":"NJ","name":"Barnegat Pier","type":"S","id":"8533141","lat":39.9183,"lng":-74.11},{"state":"NJ","name":"Seaside Park","type":"S","id":"8533135","lat":39.9217,"lng":-74.0833},{"state":"PA","name":"PHILADELPHIA, US Coast Guard Station, Pa.","type":"R","id":"8545240","lat":39.93330001831055,"lng":-75.1417007446289},{"state":"NJ","name":"Seaside Heights, ocean","type":"S","id":"8533071","lat":39.9433,"lng":-74.035},{"state":"NJ","name":"Pavonia, Cooper River, RR. bridge, N.J.","type":"S","id":"8538752","lat":39.9467,"lng":-75.105},{"state":"NJ","name":"Coates Point","type":"S","id":"8533055","lat":39.9483,"lng":-74.115},{"state":"NJ","name":"Toms River (town), Toms River","type":"R","id":"8533051","lat":39.95000076293945,"lng":-74.19830322265625},{"state":"PA","name":"Philadelphia, Municipal Pier 11, Pa.","type":"R","id":"8545530","lat":39.9533,"lng":-75.1383},{"state":"PA","name":"Market Street Bridge","type":"S","id":"8545120","lat":39.955,"lng":-75.18},{"state":"NJ","name":"Goose Creek entrance","type":"S","id":"8533005","lat":39.9633,"lng":-74.115},{"state":"NJ","name":"Hainesport, South Branch","type":"S","id":"8538824","lat":39.9783,"lng":-74.8233},{"state":"PA","name":"Bridesburg, Philadelphia, Pa.","type":"R","id":"8546252","lat":39.983299255371094,"lng":-75.07499694824219},{"state":"NJ","name":"Ocean Beach","type":"S","id":"8532885","lat":39.9883,"lng":-74.0683},{"state":"NJ","name":"Palmyra, Pennsauken Creek, Route 73 bridge, N.J.","type":"S","id":"8538853","lat":39.9933,"lng":-75.0283},{"state":"NJ","name":"Silver Bay, Silver Bay Marina","type":"S","id":"8532921","lat":39.9967,"lng":-74.1483},{"state":"NJ","name":"North Branch","type":"S","id":"8538848","lat":39.9983,"lng":-74.8183},{"state":"NJ","name":"Tacony-Palmyra Bridge","type":"R","id":"8538886","lat":40.01194,"lng":-75.04299999978807},{"state":"NJ","name":"Kettle Creek, Green Island","type":"S","id":"8532835","lat":40.0133,"lng":-74.1133},{"state":"NJ","name":"Pompeston Creek, N.J.","type":"S","id":"8538875","lat":40.0133,"lng":-75.0083},{"state":"NJ","name":"Bridgeboro","type":"S","id":"8538921","lat":40.0283,"lng":-74.9317},{"state":"NJ","name":"Mantoloking","type":"S","id":"8532786","lat":40.0367,"lng":-74.0533},{"state":"NJ","name":"Tall Pines Camp","type":"S","id":"8532721","lat":40.0583,"lng":-74.1167},{"state":"NJ","name":"Beaverdam Creek entrance","type":"S","id":"8532715","lat":40.0617,"lng":-74.0617},{"state":"NJ","name":"Beaverdam Creek, inside","type":"S","id":"8532716","lat":40.0617,"lng":-74.0733},{"state":"NJ","name":"Forge Pond","type":"S","id":"8532703","lat":40.065,"lng":-74.135},{"state":"PA","name":"Cornwells Heights, Pa.","type":"S","id":"8547333","lat":40.0683,"lng":-74.9383},{"state":"NJ","name":"Assiscunk Creek, Route 130 bridge, N.J.","type":"S","id":"8539058","lat":40.0733,"lng":-74.8483},{"state":"NJ","name":"Burlington, N.J.","type":"R","id":"8539094","lat":40.08169937133789,"lng":-74.86969757080078},{"state":"NJ","name":"Riviera Beach","type":"S","id":"8532611","lat":40.0967,"lng":-74.0867},{"state":"NJ","name":"Manasquan Inlet, USCG Station","type":"S","id":"8532591","lat":40.1017,"lng":-74.035},{"state":"NJ","name":"Brielle, Route 35 bridge","type":"S","id":"8532585","lat":40.105,"lng":-74.055},{"state":"PA","name":"Edgely, Pa.","type":"S","id":"8549424","lat":40.1283,"lng":-74.8233},{"state":"PA","name":"Newbold, Pa.","type":"R","id":"8548989","lat":40.13669967651367,"lng":-74.75170135498047},{"state":"NJ","name":"Fieldsboro, N.J.","type":"R","id":"8539487","lat":40.1367,"lng":-74.7367},{"state":"NJ","name":"New Bedford","type":"S","id":"8532371","lat":40.1783,"lng":-74.0467},{"state":"NJ","name":"Belmar, Atlantic Ocean","type":"S","id":"8532337","lat":40.185,"lng":-74.0083},{"state":"NJ","name":"Shark River Island, fixed RR. bridge","type":"S","id":"8532339","lat":40.1867,"lng":-74.0267},{"state":"NJ","name":"Trenton, N.J.","type":"R","id":"8539993","lat":40.1883,"lng":-74.755},{"state":"NJ","name":"Shark River Hills","type":"S","id":"8532322","lat":40.1917,"lng":-74.0383},{"state":"NJ","name":"Long Branch (fishing pier)","type":"S","id":"8531991","lat":40.3033,"lng":-73.9767},{"state":"NJ","name":"Long Branch Reach","type":"S","id":"8531942","lat":40.325,"lng":-73.9967},{"state":"NJ","name":"Gooseneck Point, bridge","type":"S","id":"8531925","lat":40.3267,"lng":-74.0167},{"state":"NJ","name":"Red Bank, Navesink River","type":"S","id":"8531833","lat":40.355,"lng":-74.065},{"state":"NJ","name":"Sea Bright","type":"S","id":"8531804","lat":40.365,"lng":-73.975},{"state":"NJ","name":"Oceanic Bridge, Navesink River","type":"S","id":"8531753","lat":40.3767,"lng":-74.015},{"state":"NJ","name":"Highlands, Route 36 bridge","type":"S","id":"8531712","lat":40.3967,"lng":-73.9817},{"state":"NJ","name":"Old Bridge, South River","type":"R","id":"8531369","lat":40.41669845581055,"lng":-74.36329650878906},{"state":"NJ","name":"Atlantic Highlands","type":"S","id":"8531662","lat":40.4183,"lng":-74.035},{"state":"NJ","name":"Matawan Creek, Route 35 bridge","type":"S","id":"8531526","lat":40.4333,"lng":-74.2183},{"state":"NJ","name":"Keyport","type":"S","id":"8531545","lat":40.44,"lng":-74.1983},{"state":"NJ","name":"Waackaack Creek","type":"S","id":"8531592","lat":40.4483,"lng":-74.1433},{"state":"NJ","name":"Cheesequake Creek, Garden State Parkway","type":"R","id":"8531223","lat":40.4533,"lng":-74.2733},{"state":"NJ","name":"SANDY HOOK (Fort Hancock)","type":"R","id":"8531680","lat":40.4669444,"lng":-74.0094444},{"state":"NJ","name":"Sayreville","type":"R","id":"8531390","lat":40.47829818725586,"lng":-74.35669708251953},{"state":"NJ","name":"New Brunswick","type":"R","id":"8531463","lat":40.48830032348633,"lng":-74.43499755859375},{"state":"NJ","name":"South Amboy","type":"S","id":"8531232","lat":40.4917,"lng":-74.2817},{"state":"NJ","name":"Keasbey","type":"R","id":"8531262","lat":40.50830078125,"lng":-74.31169891357422},{"state":"NY","name":"Princes Bay","type":"S","id":"8519726","lat":40.5117,"lng":-74.2},{"state":"NY","name":"Great Kills Harbor","type":"R","id":"8519436","lat":40.5433,"lng":-74.14},{"state":"NJ","name":"Woodbridge Creek, 0.8 n.mi. above entrance","type":"S","id":"8531156","lat":40.545,"lng":-74.265},{"state":"","name":"Port Reading, Arthur Kill","type":"R","id":"8531142","lat":40.55500030517578,"lng":-74.24500274658203},{"state":"NY","name":"Rossville, N.Y.","type":"S","id":"8519789","lat":40.5567,"lng":-74.2233},{"state":"NY","name":"Coney Island","type":"S","id":"8517741","lat":40.57,"lng":-73.9833},{"state":"NY","name":"Barren Island, Rockaway Inlet","type":"S","id":"8517394","lat":40.5783,"lng":-73.8883},{"state":"","name":"Kingsborough, Sheepshead Bay","type":"R","id":"8517756","lat":40.581199645996094,"lng":-73.93379974365234},{"state":"NY","name":"Plumb Beach Channel","type":"S","id":"8517531","lat":40.585,"lng":-73.925},{"state":"NY","name":"Jones Inlet (Point Lookout)","type":"S","id":"8516385","lat":40.5867,"lng":-73.5783},{"state":"NJ","name":"Carteret","type":"S","id":"8531095","lat":40.5867,"lng":-74.21},{"state":"NY","name":"Beach Channel (bridge)","type":"S","id":"8517137","lat":40.5883,"lng":-73.82},{"state":"NY","name":"Norton Point, Gravesend Bay","type":"S","id":"8517811","lat":40.59,"lng":-73.9983},{"state":"NY","name":"Point Lookout (marina), Jones Inlet","type":"R","id":"8516402","lat":40.59388888888889,"lng":-73.58397222222223},{"state":"NY","name":"East Rockaway Inlet, Atlantic Beach","type":"R","id":"8516881","lat":40.595,"lng":-73.7433},{"state":"NY","name":"Long Beach, Bridgewater Yacht Club, New York","type":"R","id":"8516663","lat":40.59633333333333,"lng":-73.65508333333334},{"state":"NJ","name":"Rahway River, RR. Bridge","type":"S","id":"8531077","lat":40.5983,"lng":-74.2317},{"state":"NY","name":"Long Beach (Inside)","type":"S","id":"8516601","lat":40.6,"lng":-73.65},{"state":"","name":"Chelsea","type":"S","id":"TEC1645","lat":40.6,"lng":-74.2},{"state":"NY","name":"Deep Creek Meadow","type":"S","id":"8516225","lat":40.6033,"lng":-73.525},{"state":"NY","name":"Fort Wadsworth, The Narrows","type":"S","id":"8519024","lat":40.6067,"lng":-74.055},{"state":"NY","name":"Mill Basin","type":"S","id":"8517519","lat":40.6083,"lng":-73.9217},{"state":"NY","name":"Fort Hamilton, The Narrows","type":"S","id":"8517942","lat":40.6083,"lng":-74.035},{"state":"NY","name":"USCG Station NY","type":"R","id":"8519050","lat":40.612,"lng":-74.0598611111111},{"state":"NY","name":"Motts Basin","type":"S","id":"8516925","lat":40.6167,"lng":-73.7583},{"state":"NY","name":"Gilgo Heading","type":"S","id":"8515764","lat":40.62,"lng":-73.395},{"state":"NY","name":"Cuba Island","type":"S","id":"8516221","lat":40.62,"lng":-73.5233},{"state":"NY","name":"Woodmere, Brosewere Bay","type":"S","id":"8516745","lat":40.62,"lng":-73.6983},{"state":"NY","name":"Green Island","type":"R","id":"8516155","lat":40.6233,"lng":-73.5017},{"state":"NY","name":"Neds Creek","type":"S","id":"8516315","lat":40.6233,"lng":-73.555},{"state":"NY","name":"J.F.K. International Airport","type":"S","id":"8516999","lat":40.6233,"lng":-73.7833},{"state":"NY","name":"Fire Island Coast Guard Station","type":"R","id":"8515186","lat":40.6267,"lng":-73.26},{"state":"NY","name":"Bay Park, Hewlett Bay","type":"R","id":"8516661","lat":40.63,"lng":-73.67},{"state":"NY","name":"Canarsie","type":"S","id":"8517381","lat":40.63,"lng":-73.885},{"state":"NY","name":"Democrat Point, Fire Island Inlet","type":"S","id":"8515228","lat":40.6333,"lng":-73.2933},{"state":"NY","name":"Freeport, Baldwin Bay","type":"S","id":"8516411","lat":40.6333,"lng":-73.5867},{"state":"NY","name":"Baldwin, Parsonage Cove, Hempstead Bay","type":"R","id":"8516501","lat":40.6333,"lng":-73.6167},{"state":"NY","name":"Fire Island Light","type":"S","id":"8515014","lat":40.635,"lng":-73.22},{"state":"NY","name":"Norton Point, Head of Bay","type":"R","id":"8516891","lat":40.635,"lng":-73.7467},{"state":"NY","name":"BAYONNE BRIDGE, STATEN ISLAND","type":"R","id":"8519483","lat":40.63669444444444,"lng":-74.14169444444444},{"state":"NY","name":"Oak Beach","type":"S","id":"8515336","lat":40.64,"lng":-73.295},{"state":"NY","name":"St. George, Staten Island","type":"S","id":"8519112","lat":40.6433,"lng":-74.0733},{"state":"NY","name":"North Channel Bridge, Grassy Bay","type":"R","id":"8517201","lat":40.645,"lng":-73.8367},{"state":"NY","name":"Port Ivory, Howland Hook, N.Y.","type":"S","id":"8519200","lat":40.645,"lng":-74.18},{"state":"NY","name":"Seaview Ferry Dock","type":"R","id":"8514779","lat":40.64925,"lng":-73.15061111111112},{"state":"NY","name":"Amityville","type":"S","id":"8515864","lat":40.655,"lng":-73.4183},{"state":"NJ","name":"Constable Hook","type":"S","id":"8530985","lat":40.655,"lng":-74.085},{"state":"NY","name":"West Fire Island","type":"S","id":"8514961","lat":40.6567,"lng":-73.205},{"state":"NY","name":"Bellmore, Bellmore Creek","type":"S","id":"8516211","lat":40.6633,"lng":-73.52},{"state":"NY","name":"Gowanus Bay","type":"S","id":"8517921","lat":40.665,"lng":-74.0133},{"state":"NY","name":"Biltmore Shores, South Oyster Bay","type":"S","id":"8516055","lat":40.6667,"lng":-73.4683},{"state":"NJ","name":"Port Elizabeth","type":"S","id":"8530882","lat":40.6733,"lng":-74.14},{"state":"NY","name":"Babylon","type":"S","id":"8515421","lat":40.685,"lng":-73.315},{"state":"NJ","name":"Port Newark Terminal","type":"S","id":"8530884","lat":40.69,"lng":-74.1333},{"state":"NY","name":"NEW YORK (The Battery)","type":"R","id":"8518750","lat":40.7005556,"lng":-74.0141667},{"state":"NY","name":"Brooklyn Bridge","type":"R","id":"8517847","lat":40.7033,"lng":-73.995},{"state":"NY","name":"Wallabout Bay, Brooklyn Navy Yard","type":"S","id":"8517732","lat":40.7067,"lng":-73.975},{"state":"NY","name":"Williamsburg Bridge","type":"R","id":"8518699","lat":40.7117,"lng":-73.9683},{"state":"NY","name":"Bay Shore, Watchogue Creek Entrance","type":"S","id":"8515102","lat":40.7167,"lng":-73.24},{"state":"NY","name":"Great River, Connetquot River","type":"S","id":"8514783","lat":40.7233,"lng":-73.1517},{"state":"NJ","name":"Kearny Point","type":"S","id":"8530772","lat":40.7283,"lng":-74.1033},{"state":"NJ","name":"Point No Point","type":"S","id":"8530743","lat":40.7317,"lng":-74.1167},{"state":"NY","name":"Smith Point Bridge, Narrow Bay","type":"R","id":"8513825","lat":40.7383,"lng":-72.8683},{"state":"NY","name":"Hunters Point, Newtown Creek","type":"S","id":"8517673","lat":40.74,"lng":-73.9617},{"state":"NY","name":"East 41st Street, New York City","type":"S","id":"8518695","lat":40.7467,"lng":-73.9683},{"state":"NY","name":"Patchogue","type":"R","id":"8514322","lat":40.75,"lng":-73},{"state":"NJ","name":"Amtrak RR. swing bridge","type":"S","id":"8530696","lat":40.7517,"lng":-74.0967},{"state":"NY","name":"Queensboro Bridge","type":"R","id":"8518687","lat":40.7583,"lng":-73.9583},{"state":"NY","name":"Worlds Fair Marina, Flushing Bay","type":"R","id":"8517251","lat":40.761,"lng":-73.85036111111111},{"state":"NY","name":"Moriches Inlet","type":"R","id":"8513398","lat":40.76441666666667,"lng":-72.75597222222223},{"state":"NJ","name":"Weehawken, Union City, N.J.","type":"S","id":"8530645","lat":40.765,"lng":-74.0183},{"state":"NY","name":"Horns Hook, East 90th Street","type":"R","id":"8518668","lat":40.7767,"lng":-73.9417},{"state":"NY","name":"College Point, Flushing Bay","type":"S","id":"8517276","lat":40.7833,"lng":-73.8567},{"state":"NY","name":"Moriches Coast Guard Station","type":"R","id":"8513388","lat":40.7867,"lng":-72.75},{"state":"NY","name":"Hell Gate, Wards Island","type":"S","id":"8517401","lat":40.7867,"lng":-73.9217},{"state":"NJ","name":"Belleville","type":"S","id":"8530591","lat":40.7867,"lng":-74.1467},{"state":"NY","name":"Willets Point","type":"R","id":"8516990","lat":40.7933,"lng":-73.7817},{"state":"NJ","name":"Fish Creek, Berrys Creek","type":"S","id":"8530586","lat":40.7933,"lng":-74.0917},{"state":"NY","name":"Whitestone","type":"S","id":"8517125","lat":40.7983,"lng":-73.8133},{"state":"NY","name":"North Brother Island","type":"S","id":"8518635","lat":40.7983,"lng":-73.8983},{"state":"NY","name":"Hunts Point","type":"S","id":"8518621","lat":40.8,"lng":-73.8733},{"state":"NY","name":"Harlem River, Randalls Island","type":"R","id":"8518643","lat":40.8,"lng":-73.9283},{"state":"NY","name":"Port Morris (Stony Point)","type":"R","id":"8518639","lat":40.8017,"lng":-73.9067},{"state":"NY","name":"Throgs Neck, Fort Schuyler","type":"R","id":"8518526","lat":40.805,"lng":-73.795},{"state":"NJ","name":"North Secaucus, Garretts Reach","type":"S","id":"8530531","lat":40.805,"lng":-74.0533},{"state":"NJ","name":"Carlstadt, Garretts Reach","type":"S","id":"8530528","lat":40.8067,"lng":-74.06},{"state":"NY","name":"KINGS POINT","type":"R","id":"8516945","lat":40.81030555555556,"lng":-73.765},{"state":"NJ","name":"Edgewater, N.J.","type":"S","id":"8530505","lat":40.8133,"lng":-73.9783},{"state":"NY","name":"Shinnecock Yacht Club, Penniman Creek","type":"R","id":"8512769","lat":40.81855555555556,"lng":-72.58661111111111},{"state":"NY","name":"Shinnecock Bay entrance","type":"S","id":"8512671","lat":40.82,"lng":-72.5617},{"state":"NY","name":"Port Washington, Manhasset Bay","type":"R","id":"8516761","lat":40.8317,"lng":-73.7033},{"state":"NY","name":"Harry Tappen Marina, Hempstead Harbor","type":"R","id":"8516607","lat":40.83461111111111,"lng":-73.65241666666667},{"state":"NY","name":"Shinnecock Inlet (ocean)","type":"R","id":"8512354","lat":40.8367,"lng":-72.48},{"state":"NJ","name":"East Rutherford","type":"S","id":"8530403","lat":40.8467,"lng":-74.12},{"state":"NY","name":"Ponquoque Point","type":"R","id":"8512451","lat":40.85,"lng":-72.5033},{"state":"NJ","name":"Ridgefield Park","type":"S","id":"8530398","lat":40.85,"lng":-74.03},{"state":"NY","name":"Glen Cove, Hempstead Harbor","type":"R","id":"8516614","lat":40.8633,"lng":-73.655},{"state":"NY","name":"Oyster Bay Harbor","type":"S","id":"8516201","lat":40.8667,"lng":-73.5167},{"state":"NY","name":"Dyckman Street, Ferry Slip","type":"R","id":"8518902","lat":40.8683,"lng":-73.9333},{"state":"NY","name":"Cold Spring Harbor","type":"R","id":"8516061","lat":40.87329864501953,"lng":-73.47000122070312},{"state":"NY","name":"Spuyten Duyvil Creek ent., N.Y.","type":"S","id":"8518903","lat":40.8783,"lng":-73.925},{"state":"NJ","name":"Hackensack","type":"S","id":"8530278","lat":40.88,"lng":-74.04},{"state":"NY","name":"New Rochelle","type":"S","id":"8518490","lat":40.8933,"lng":-73.7817},{"state":"NY","name":"Northport, Northport Bay","type":"R","id":"8515586","lat":40.9,"lng":-73.3533},{"state":"NY","name":"Bayville Bridge","type":"R","id":"8516299","lat":40.9033,"lng":-73.55},{"state":"NY","name":"Riverdale, N.Y.","type":"S","id":"8518905","lat":40.9033,"lng":-73.9167},{"state":"NY","name":"Lloyd Harbor, Huntington Bay","type":"R","id":"8515921","lat":40.91,"lng":-73.4317},{"state":"NY","name":"South Jamesport","type":"R","id":"8512735","lat":40.935,"lng":-72.5817},{"state":"NJ","name":"New Millford","type":"S","id":"8530186","lat":40.935,"lng":-74.03},{"state":"NJ","name":"Alpine, N.J.","type":"S","id":"8530095","lat":40.945,"lng":-73.9183},{"state":"NY","name":"Port Jefferson","type":"R","id":"8514560","lat":40.95000076293945,"lng":-73.07669830322266},{"state":"NY","name":"Eatons Neck Point","type":"R","id":"8515786","lat":40.9533,"lng":-73.4},{"state":"NY","name":"Rye Beach","type":"R","id":"8518091","lat":40.9617,"lng":-73.6717},{"state":"NY","name":"Mount Sinai Harbor","type":"S","id":"8514421","lat":40.9633,"lng":-73.04},{"state":"NY","name":"Cedar Beach","type":"R","id":"8514422","lat":40.965,"lng":-73.0433},{"state":"NY","name":"Port Jefferson Harbor entrance","type":"S","id":"8514594","lat":40.9717,"lng":-73.0917},{"state":"NY","name":"Northville","type":"R","id":"8512987","lat":40.9817,"lng":-72.645},{"state":"NY","name":"New Suffolk","type":"S","id":"8512328","lat":40.9917,"lng":-72.4717},{"state":"NY","name":"Noyack Bay","type":"S","id":"8511779","lat":40.995,"lng":-72.3317},{"state":"NY","name":"Sag Harbor","type":"R","id":"8511629","lat":41.0033,"lng":-72.2967},{"state":"NY","name":"Mattituck Inlet","type":"R","id":"8512668","lat":41.015,"lng":-72.5617},{"state":"CT","name":"Cos Cob Harbor","type":"S","id":"8469549","lat":41.0167,"lng":-73.5967},{"state":"NY","name":"Threemile Harbor entrance, Gardiners Bay","type":"S","id":"8511171","lat":41.035,"lng":-72.19},{"state":"CT","name":"Long Neck Point","type":"R","id":"8468799","lat":41.0383,"lng":-73.48},{"state":"CT","name":"Stamford","type":"R","id":"8469198","lat":41.0383,"lng":-73.5467},{"state":"NY","name":"MONTAUK, FORT POND BAY","type":"R","id":"8510560","lat":41.0483333,"lng":-71.9594444},{"state":"NY","name":"Southold","type":"S","id":"8512114","lat":41.06,"lng":-72.4133},{"state":"CT","name":"Rowayton, Fivemile River","type":"S","id":"8468609","lat":41.065,"lng":-73.445},{"state":"NY","name":"Lake Montauk","type":"R","id":"8510448","lat":41.0733,"lng":-71.935},{"state":"NY","name":"Montauk Harbor entrance","type":"S","id":"8510502","lat":41.075,"lng":-71.9367},{"state":"NY","name":"Tarrytown","type":"S","id":"8518919","lat":41.0783,"lng":-73.87},{"state":"NY","name":"Hashamomuck Beach","type":"S","id":"8512053","lat":41.095,"lng":-72.3983},{"state":"CT","name":"South Norwalk","type":"R","id":"8468448","lat":41.0967,"lng":-73.415},{"state":"NY","name":"Greenport","type":"R","id":"8511907","lat":41.101,"lng":-72.36116666666666},{"state":"","name":"SAUGATUCK, SAUGATUCK RIVER","type":"R","id":"8468191","lat":41.119998931884766,"lng":-73.36830139160156},{"state":"CT","name":"Southport, Southport Harbor","type":"R","id":"8467726","lat":41.1333,"lng":-73.2833},{"state":"NY","name":"Orient","type":"R","id":"8511671","lat":41.1367,"lng":-72.3067},{"state":"CT","name":"Black Rock Harbor","type":"R","id":"8467373","lat":41.1567,"lng":-73.2133},{"state":"RI","name":"Southwest Point, Block Island","type":"R","id":"8459681","lat":41.1633,"lng":-71.61},{"state":"NY","name":"Plum Gut Harbor, Plum Island","type":"R","id":"8511236","lat":41.1717,"lng":-72.205},{"state":"RI","name":"Block Island (Old Harbor)","type":"R","id":"8459338","lat":41.1733,"lng":-71.5567},{"state":"CT","name":"BRIDGEPORT","type":"R","id":"8467150","lat":41.173301696777344,"lng":-73.18170166015625},{"state":"CT","name":"Sniffens Point","type":"S","id":"8466791","lat":41.1867,"lng":-73.1133},{"state":"CT","name":"Stratford, I-95 bridge","type":"S","id":"8466797","lat":41.2033,"lng":-73.1117},{"state":"CT","name":"Gulf Beach","type":"S","id":"8466375","lat":41.205,"lng":-73.0417},{"state":"NY","name":"Little Gull Island","type":"S","id":"8510884","lat":41.2067,"lng":-72.1017},{"state":"CT","name":"Milford Harbor","type":"S","id":"8466442","lat":41.2183,"lng":-73.055},{"state":"NY","name":"Haverstraw","type":"R","id":"8518924","lat":41.2183,"lng":-73.9633},{"state":"CT","name":"Sachem Head","type":"S","id":"8464687","lat":41.245,"lng":-72.7083},{"state":"CT","name":"Lighthouse Point, New Haven Harbor","type":"S","id":"8465692","lat":41.2517,"lng":-72.905},{"state":"NY","name":"Silver Eel Pond, Fishers Island, N.Y.","type":"R","id":"8510719","lat":41.2567,"lng":-72.03},{"state":"MA","name":"Nomans Land","type":"S","id":"8449287","lat":41.2617,"lng":-70.8183},{"state":"CT","name":"Branford, Branford River","type":"S","id":"8465233","lat":41.2617,"lng":-72.8183},{"state":"CT","name":"Saybrook Jetty","type":"S","id":"8462723","lat":41.2633,"lng":-72.3433},{"state":"CT","name":"Clinton Harbor","type":"R","id":"8463701","lat":41.2683,"lng":-72.5317},{"state":"CT","name":"Madison","type":"S","id":"8464041","lat":41.27,"lng":-72.59},{"state":"CT","name":"Guilford Harbor","type":"S","id":"8464445","lat":41.2717,"lng":-72.6667},{"state":"CT","name":"Westbrook, Duck Island Roads","type":"S","id":"8463409","lat":41.2733,"lng":-72.475},{"state":"CT","name":"Long Hill","type":"S","id":"8466664","lat":41.275,"lng":-73.0883},{"state":"CT","name":"Saybrook Point","type":"S","id":"8462752","lat":41.2833,"lng":-72.35},{"state":"CT","name":"New Haven Harbor, New Haven Reach","type":"R","id":"8465705","lat":41.2833,"lng":-72.9083},{"state":"MA","name":"NANTUCKET","type":"R","id":"8449130","lat":41.2852783203125,"lng":-70.09638977050781},{"state":"NY","name":"Peekskill","type":"S","id":"8518949","lat":41.2883,"lng":-73.9317},{"state":"MA","name":"Eel Point","type":"S","id":"8449062","lat":41.2917,"lng":-70.2083},{"state":"CT","name":"Shelton","type":"S","id":"8466573","lat":41.3017,"lng":-73.0717},{"state":"RI","name":"Watch Hill Point","type":"S","id":"8458694","lat":41.305,"lng":-71.86},{"state":"MA","name":"Squibnocket Point","type":"S","id":"8448942","lat":41.3117,"lng":-70.7683},{"state":"CT","name":"Lyme, highway bridge","type":"S","id":"8462764","lat":41.3217,"lng":-72.35},{"state":"CT","name":"Niantic, Niantic River","type":"S","id":"8461925","lat":41.325,"lng":-72.1867},{"state":"MA","name":"Martha's Vineyard GPS Buoy","type":"R","id":"8448875","lat":41.32622222222222,"lng":-70.59033333333333},{"state":"RI","name":"Weekapaug Point, Block Island Sound","type":"R","id":"8458022","lat":41.3283,"lng":-71.7617},{"state":"MA","name":"Muskeget Island, north side","type":"S","id":"8448817","lat":41.3367,"lng":-70.305},{"state":"","name":"WEST MYSTIC, MYSTIC RIVER","type":"R","id":"8460751","lat":41.343299865722656,"lng":-71.9749984741211},{"state":"CT","name":"Essex","type":"S","id":"8462925","lat":41.3483,"lng":-72.385},{"state":"MA","name":"Gay Head","type":"S","id":"8448733","lat":41.3533,"lng":-70.83},{"state":"MA","name":"Menemsha Harbor, MA","type":"R","id":"8448725","lat":41.35444444444445,"lng":-70.76783333333333},{"state":"CT","name":"NEW LONDON, State Pier","type":"R","id":"8461490","lat":41.36140060424805,"lng":-72.08999633789062},{"state":"MA","name":"Wasque Point, Chappaquiddick Island","type":"S","id":"8448683","lat":41.3633,"lng":-70.45},{"state":"RI","name":"Point Judith, Harbor of Refuge","type":"R","id":"8455083","lat":41.3633,"lng":-71.49},{"state":"RI","name":"Westerly, Pawcatuck River","type":"S","id":"8455189","lat":41.3817,"lng":-71.8317},{"state":"MA","name":"Great Point","type":"S","id":"8448566","lat":41.3867,"lng":-70.0467},{"state":"MA","name":"Edgartown","type":"R","id":"8448558","lat":41.3883,"lng":-70.5117},{"state":"CT","name":"Hadlyme","type":"S","id":"8463155","lat":41.42,"lng":-72.4283},{"state":"RI","name":"Narragansett Pier","type":"S","id":"8454658","lat":41.4217,"lng":-71.455},{"state":"MA","name":"Cuttyhunk","type":"S","id":"8448376","lat":41.425,"lng":-70.9167},{"state":"CT","name":"Yale boathouse","type":"S","id":"8461467","lat":41.43,"lng":-72.0933},{"state":"MA","name":"Cedar Tree Neck","type":"S","id":"8448325","lat":41.435,"lng":-70.6967},{"state":"MA","name":"Quicks Hole, North side","type":"S","id":"8448251","lat":41.4483,"lng":-70.8567},{"state":"MA","name":"Penikese Island","type":"R","id":"8448248","lat":41.45,"lng":-70.9217},{"state":"RI","name":"Beavertail Point","type":"S","id":"8453999","lat":41.4517,"lng":-71.4017},{"state":"CT","name":"Tylerville","type":"S","id":"8463348","lat":41.4517,"lng":-72.465},{"state":"MA","name":"VINEYARD HAVEN, VINEYARD HVN HBR","type":"R","id":"8448157","lat":41.4583,"lng":-70.6},{"state":"MA","name":"Oak Bluffs","type":"S","id":"8448208","lat":41.4583,"lng":-70.555},{"state":"RI","name":"Watson Pier, Boston Neck","type":"S","id":"8454341","lat":41.46,"lng":-71.4283},{"state":"RI","name":"Castle Hill","type":"S","id":"8453201","lat":41.4633,"lng":-71.3617},{"state":"RI","name":"Sakonnet","type":"R","id":"8450768","lat":41.465,"lng":-71.1933},{"state":"CT","name":"Haddam","type":"S","id":"8463582","lat":41.4817,"lng":-72.5067},{"state":"RI","name":"Sachuest, Flint Point","type":"S","id":"8451351","lat":41.4867,"lng":-71.2383},{"state":"RI","name":"West Jamestown, Dutch Island Harbor","type":"R","id":"8453742","lat":41.4967,"lng":-71.3867},{"state":"NY","name":"Beacon, Flushkill","type":"R","id":"8518934","lat":41.5,"lng":-73.9833},{"state":"NY","name":"Newburgh","type":"S","id":"8518935","lat":41.5,"lng":-74.0067},{"state":"CT","name":"Higganum Creek","type":"S","id":"8463836","lat":41.5033,"lng":-72.5533},{"state":"RI","name":"NEWPORT","type":"R","id":"8452660","lat":41.505,"lng":-71.3267},{"state":"MA","name":"Westport Harbor","type":"S","id":"8447975","lat":41.5083,"lng":-71.0933},{"state":"MA","name":"Little Harbor","type":"S","id":"8447939","lat":41.52,"lng":-70.665},{"state":"MA","name":"Uncatena Island (south side)","type":"S","id":"8447941","lat":41.52,"lng":-70.7083},{"state":"CT","name":"Norwich","type":"S","id":"8461392","lat":41.5233,"lng":-72.0783},{"state":"MA","name":"OCEANOGRAPHIC INSTITUTION","type":"R","id":"8447930","lat":41.52361297607422,"lng":-70.67111206054688},{"state":"MA","name":"Round Hill Point","type":"R","id":"8447842","lat":41.5383,"lng":-70.9283},{"state":"CT","name":"Maromas","type":"S","id":"8463827","lat":41.5417,"lng":-72.5517},{"state":"MA","name":"Falmouth Heights","type":"S","id":"8447865","lat":41.545,"lng":-70.5933},{"state":"RI","name":"The Glen","type":"S","id":"8451301","lat":41.5583,"lng":-71.2367},{"state":"CT","name":"Middletown","type":"S","id":"8464336","lat":41.56,"lng":-72.645},{"state":"MA","name":"Hix Bridge, East Branch","type":"S","id":"8447791","lat":41.57,"lng":-71.0733},{"state":"RI","name":"Wickford","type":"R","id":"8454538","lat":41.5717,"lng":-71.445},{"state":"RI","name":"Conanicut Point","type":"S","id":"8453465","lat":41.5733,"lng":-71.3717},{"state":"RI","name":"Prudence Island, (south end)","type":"S","id":"8452555","lat":41.58,"lng":-71.3217},{"state":"NY","name":"New Hamburg","type":"S","id":"8518939","lat":41.5833,"lng":-73.95},{"state":"MA","name":"Poponesset Island, Poponesset Bay","type":"S","id":"8447742","lat":41.5867,"lng":-70.4633},{"state":"RI","name":"Quonset Point","type":"R","id":"8454049","lat":41.5868,"lng":-71.411},{"state":"MA","name":"Clarks Point","type":"R","id":"8447712","lat":41.5933,"lng":-70.9},{"state":"MA","name":"Chappaquoit Point, West Falmouth Harbor","type":"R","id":"8447685","lat":41.605,"lng":-70.6517},{"state":"MA","name":"Cotuit Highlands","type":"S","id":"8447675","lat":41.6083,"lng":-70.4367},{"state":"RI","name":"Nannaquaket Neck","type":"S","id":"8450954","lat":41.6183,"lng":-71.2033},{"state":"MA","name":"Hyannis Port","type":"R","id":"8447605","lat":41.6317,"lng":-70.3},{"state":"RI","name":"Bristol Ferry","type":"R","id":"8451552","lat":41.6367,"lng":-71.255},{"state":"RI","name":"Anthony Point","type":"S","id":"8450948","lat":41.6383,"lng":-71.2117},{"state":"MA","name":"New Bedford","type":"S","id":"8447584","lat":41.64,"lng":-70.9183},{"state":"RI","name":"North End, Bay Oil pier","type":"S","id":"8450898","lat":41.6517,"lng":-71.21},{"state":"MA","name":"Mattapoisett, Mattapoisett Harbor","type":"S","id":"8447531","lat":41.6567,"lng":-70.8133},{"state":"MA","name":"Dennisport","type":"S","id":"8447525","lat":41.6583,"lng":-70.115},{"state":"CT","name":"Rocky Hill","type":"S","id":"8464255","lat":41.6633,"lng":-72.63},{"state":"MA","name":"South Yarmouth, Bass River","type":"S","id":"8447504","lat":41.665,"lng":-70.1833},{"state":"MA","name":"Wychmere Harbor","type":"S","id":"8447506","lat":41.665,"lng":-70.065},{"state":"RI","name":"East Greenwich","type":"R","id":"8454578","lat":41.665000915527344,"lng":-71.44499969482422},{"state":"MA","name":"Chatham, Stage Harbor","type":"R","id":"8447505","lat":41.6667,"lng":-69.9667},{"state":"MA","name":"Saquatucket Harbor","type":"R","id":"8447495","lat":41.6683,"lng":-70.0567},{"state":"RI","name":"Bristol, Bristol Harbor","type":"S","id":"8451929","lat":41.6683,"lng":-71.28},{"state":"MA","name":"Chatham Harbor, Aunt Lydias Cove","type":"R","id":"8447435","lat":41.6880556,"lng":-69.9508333},{"state":"MA","name":"Georges Shoal, Texas Tower","type":"S","id":"8447436","lat":41.6883,"lng":-67.76},{"state":"MA","name":"Piney Point","type":"R","id":"8447416","lat":41.695,"lng":-70.72},{"state":"RI","name":"Bristol Highlands","type":"R","id":"8452154","lat":41.69670104980469,"lng":-71.29329681396484},{"state":"NY","name":"Poughkeepsie","type":"S","id":"8518945","lat":41.7,"lng":-73.9333},{"state":"MA","name":"Fall River, Massachusetts","type":"R","id":"8447386","lat":41.70429992675781,"lng":-71.16410064697266},{"state":"MA","name":"Marion, Sippican Harbor","type":"S","id":"8447385","lat":41.705,"lng":-70.7617},{"state":"","name":"KICKAMUIT RIVER","type":"R","id":"8455137","lat":41.707801818847656,"lng":-71.24169921875},{"state":"MA","name":"Great Hill","type":"R","id":"8447368","lat":41.7117,"lng":-70.715},{"state":"MA","name":"Monument Beach","type":"S","id":"8447355","lat":41.715,"lng":-70.6167},{"state":"RI","name":"Conimicut Light","type":"R","id":"8452944","lat":41.71670150756836,"lng":-71.34329986572266},{"state":"MA","name":"Barnstable Harbor, Beach Point","type":"S","id":"8447335","lat":41.7217,"lng":-70.285},{"state":"MA","name":"Gray Gables","type":"R","id":"8447295","lat":41.735,"lng":-70.6233},{"state":"MA","name":"Pleasant Bay","type":"S","id":"8447291","lat":41.7367,"lng":-69.9817},{"state":"MA","name":"Steep Brook, Taunton River","type":"S","id":"8447281","lat":41.74,"lng":-71.1317},{"state":"MA","name":"Cape Cod Canal, RR. bridge","type":"R","id":"8447270","lat":41.7417,"lng":-70.6167},{"state":"MA","name":"Onset Beach, Onset Bay","type":"S","id":"8447277","lat":41.7417,"lng":-70.6583},{"state":"MA","name":"Cape Cod Canal, Bourne Bridge","type":"R","id":"8447259","lat":41.745,"lng":-70.5933},{"state":"MA","name":"Sesuit Harbor, East Dennis","type":"R","id":"8447241","lat":41.7517,"lng":-70.155},{"state":"RI","name":"Bay Spring, Bullock Cove","type":"S","id":"8453033","lat":41.7517,"lng":-71.3517},{"state":"CT","name":"South Hartford","type":"S","id":"8464418","lat":41.755,"lng":-72.6583},{"state":"RI","name":"Pawtuxet, Pawtuxet Cove","type":"S","id":"8453767","lat":41.7617,"lng":-71.3883},{"state":"MA","name":"Cape Cod Canal, Bournedale","type":"R","id":"8447191","lat":41.77,"lng":-70.5617},{"state":"CT","name":"Hartford","type":"S","id":"8464464","lat":41.77,"lng":-72.6683},{"state":"MA","name":"Sandwich Marina, Cape Cod Canal, east entrance","type":"R","id":"8447180","lat":41.7717,"lng":-70.5067},{"state":"MA","name":"Cape Cod Canal, Sagamore","type":"R","id":"8447173","lat":41.775,"lng":-70.535},{"state":"NY","name":"Hyde Park","type":"R","id":"8518951","lat":41.7833,"lng":-73.95},{"state":"RI","name":"Providence, State Pier no.1","type":"R","id":"8454000","lat":41.807098388671875,"lng":-71.40119934082031},{"state":"RI","name":"Rumford, Seekonk River","type":"S","id":"8453433","lat":41.84,"lng":-71.3733},{"state":"RI","name":"Pawtucket, Seekonk River","type":"S","id":"8453611","lat":41.8683,"lng":-71.38},{"state":"NY","name":"Kingston","type":"S","id":"8518993","lat":41.9183,"lng":-73.9833},{"state":"MA","name":"Wellfleet","type":"S","id":"8446613","lat":41.93,"lng":-70.0417},{"state":"MA","name":"Plymouth","type":"R","id":"8446493","lat":41.96,"lng":-70.6617},{"state":"NY","name":"TURKEY POINT, HUDSON RIVER","type":"R","id":"8518962","lat":42.01390075683594,"lng":-73.93920135498047},{"state":"MA","name":"Duxbury, Duxbury Harbor","type":"R","id":"8446166","lat":42.0383,"lng":-70.67},{"state":"MA","name":"Provincetown","type":"R","id":"8446121","lat":42.04959166666666,"lng":-70.18215833333333},{"state":"NY","name":"Tivoli","type":"S","id":"8518964","lat":42.0583,"lng":-73.9167},{"state":"MA","name":"Brant Rock, Green Harbor River","type":"R","id":"8446009","lat":42.0833,"lng":-70.6467},{"state":"MA","name":"Damons Point, North River","type":"S","id":"8445425","lat":42.16,"lng":-70.7333},{"state":"MA","name":"Scituate, Scituate Harbor","type":"R","id":"8445138","lat":42.2017,"lng":-70.7267},{"state":"MA","name":"Hingham","type":"S","id":"8444775","lat":42.2467,"lng":-70.885},{"state":"MA","name":"Cohasset Harbor (White Head)","type":"S","id":"8444762","lat":42.2483,"lng":-70.785},{"state":"MA","name":"Weymouth Fore River Bridge","type":"R","id":"8444788","lat":42.2483,"lng":-70.9667},{"state":"NY","name":"Hudson","type":"S","id":"8518974","lat":42.25,"lng":-73.8},{"state":"MA","name":"Crow Point, Hingham Harbor entrance","type":"S","id":"8444662","lat":42.2617,"lng":-70.8933},{"state":"MA","name":"Nantasket Beach, Weir River","type":"S","id":"8444601","lat":42.27,"lng":-70.86},{"state":"MA","name":"Nut Island, Quincy Bay","type":"R","id":"8444525","lat":42.28,"lng":-70.9533},{"state":"MA","name":"Neponset, Neponset River","type":"S","id":"8444488","lat":42.285,"lng":-71.04},{"state":"MA","name":"Hull","type":"S","id":"8444351","lat":42.3033,"lng":-70.92},{"state":"MA","name":"Moon Head","type":"S","id":"8444312","lat":42.3083,"lng":-70.9917},{"state":"MA","name":"Boston Light","type":"R","id":"8444162","lat":42.3283,"lng":-70.8917},{"state":"MA","name":"Deer Island (south end)","type":"S","id":"8444012","lat":42.3483,"lng":-70.96},{"state":"MA","name":"BOSTON","type":"R","id":"8443970","lat":42.35388888888889,"lng":-71.05027777777778},{"state":"MA","name":"Charlestown, Charles River entrance","type":"S","id":"8443838","lat":42.3717,"lng":-71.055},{"state":"MA","name":"Chelsea St. Bridge, Chelsea River","type":"R","id":"8443725","lat":42.3867,"lng":-71.0233},{"state":"MA","name":"Amelia Earhart Dam, Mystic River","type":"R","id":"8443662","lat":42.395,"lng":-71.0767},{"state":"MA","name":"Lynn, Lynn Harbor","type":"R","id":"8443187","lat":42.4583,"lng":-70.9433},{"state":"MA","name":"Salem, Salem Harbor","type":"R","id":"8442645","lat":42.5233,"lng":-70.8767},{"state":"NY","name":"Castleton","type":"S","id":"8518989","lat":42.5333,"lng":-73.7667},{"state":"MA","name":"Gloucester Harbor","type":"S","id":"8441841","lat":42.61,"lng":-70.66},{"state":"MA","name":"Essex","type":"R","id":"8441771","lat":42.6317,"lng":-70.7767},{"state":"NY","name":"ALBANY","type":"R","id":"8518995","lat":42.65,"lng":-73.7467},{"state":"MA","name":"Annisquam, Lobster Cove","type":"S","id":"8441571","lat":42.655,"lng":-70.6767},{"state":"MA","name":"Rockport","type":"R","id":"8441551","lat":42.6583,"lng":-70.615},{"state":"MA","name":"Plum Island Sound (south end)","type":"R","id":"8441241","lat":42.71013888888889,"lng":-70.78861111111111},{"state":"","name":"Troy","type":"S","id":"TEC1603","lat":42.71666666666667,"lng":-73.7},{"state":"MA","name":"Riverside","type":"R","id":"8440889","lat":42.7633,"lng":-71.0767},{"state":"MA","name":"Newburyport","type":"R","id":"8440466","lat":42.815,"lng":-70.8733},{"state":"MA","name":"Plum Island, Merrimack River Entrance","type":"R","id":"8440452","lat":42.8167,"lng":-70.82},{"state":"MA","name":"Merrimacport","type":"R","id":"8440369","lat":42.825,"lng":-70.9883},{"state":"MA","name":"Salisbury Point","type":"R","id":"8440273","lat":42.8383,"lng":-70.9083},{"state":"NH","name":"Hampton Harbor","type":"S","id":"8429489","lat":42.895,"lng":-70.8167},{"state":"NH","name":"Gosport Harbor, Isles of Shoals","type":"S","id":"8427031","lat":42.9783,"lng":-70.615},{"state":"NH","name":"Squamscott River RR. Bridge","type":"S","id":"8422687","lat":43.0533,"lng":-70.9133},{"state":"NH","name":"Jaffrey Point","type":"S","id":"8424601","lat":43.0567,"lng":-70.7133},{"state":"ME","name":"Gerrish Island","type":"S","id":"8419688","lat":43.0667,"lng":-70.6967},{"state":"NH","name":"Fort Point","type":"R","id":"8423898","lat":43.071388244628906,"lng":-70.71055603027344},{"state":"NH","name":"Portsmouth","type":"S","id":"8423745","lat":43.0783,"lng":-70.7517},{"state":"ME","name":"Seavey Island","type":"R","id":"8419870","lat":43.0797222,"lng":-70.74111111111111},{"state":"ME","name":"Kittery Point","type":"S","id":"8419807","lat":43.0817,"lng":-70.7033},{"state":"ME","name":"Seapoint, Cutts Island","type":"S","id":"8419590","lat":43.085,"lng":-70.6617},{"state":"NH","name":"Atlantic Heights","type":"S","id":"8423635","lat":43.09,"lng":-70.7633},{"state":"NH","name":"Dover Point","type":"S","id":"8421897","lat":43.1217,"lng":-70.8333},{"state":"ME","name":"Fort Point, York Harbor","type":"S","id":"8419528","lat":43.13,"lng":-70.6383},{"state":"ME","name":"York Harbor","type":"S","id":"8419518","lat":43.1317,"lng":-70.6417},{"state":"ME","name":"Cape Neddick","type":"S","id":"8419399","lat":43.1667,"lng":-70.5933},{"state":"ME","name":"Salmon Falls River","type":"S","id":"8419997","lat":43.1917,"lng":-70.825},{"state":"NH","name":"Dover, Cocheco River","type":"R","id":"8420411","lat":43.1983,"lng":-70.8683},{"state":"ME","name":"Wells, Webhannet River","type":"R","id":"8419317","lat":43.31999969482422,"lng":-70.56330108642578},{"state":"ME","name":"Kennebunkport","type":"R","id":"8418911","lat":43.3583,"lng":-70.4767},{"state":"ME","name":"Cape Porpoise","type":"S","id":"8418772","lat":43.3667,"lng":-70.4317},{"state":"ME","name":"Camp Ellis, Saco River Entrance","type":"R","id":"8418606","lat":43.4617,"lng":-70.3817},{"state":"ME","name":"Biddeford, Saco River","type":"R","id":"8418828","lat":43.4917,"lng":-70.4467},{"state":"ME","name":"Old Orchard Beach","type":"S","id":"8418557","lat":43.5167,"lng":-70.3667},{"state":"ME","name":"Pine Point, Scarborough River","type":"R","id":"8418445","lat":43.545,"lng":-70.3333},{"state":"ME","name":"Portland Head Light","type":"S","id":"8418031","lat":43.6233,"lng":-70.2067},{"state":"ME","name":"Fore River","type":"S","id":"8418268","lat":43.6417,"lng":-70.285},{"state":"ME","name":"Cushing Island","type":"S","id":"8417997","lat":43.645,"lng":-70.1983},{"state":"ME","name":"Peak Island","type":"S","id":"8418001","lat":43.655,"lng":-70.2},{"state":"ME","name":"PORTLAND","type":"R","id":"8418150","lat":43.65805555555556,"lng":-70.24416666666667},{"state":"ME","name":"Great Diamond Island","type":"S","id":"8417988","lat":43.67,"lng":-70.2},{"state":"ME","name":"Vaill Island","type":"S","id":"8417911","lat":43.6767,"lng":-70.155},{"state":"ME","name":"Back Cove","type":"S","id":"8418175","lat":43.6767,"lng":-70.255},{"state":"ME","name":"Presumpscot River Bridge","type":"S","id":"8418137","lat":43.6867,"lng":-70.2467},{"state":"ME","name":"Long Island","type":"S","id":"8417941","lat":43.69,"lng":-70.17},{"state":"ME","name":"Cow Island","type":"S","id":"8418009","lat":43.69,"lng":-70.19},{"state":"ME","name":"Cliff Island, Luckse Sound","type":"S","id":"8417821","lat":43.695,"lng":-70.11},{"state":"ME","name":"Great Chebeague Island","type":"S","id":"8417881","lat":43.7217,"lng":-70.1417},{"state":"ME","name":"Falmouth Foreside","type":"S","id":"8418015","lat":43.7317,"lng":-70.205},{"state":"ME","name":"South Harpswell, Potts Harbor","type":"S","id":"8417647","lat":43.7383,"lng":-70.0233},{"state":"ME","name":"Doyle Point","type":"S","id":"8417874","lat":43.7517,"lng":-70.14},{"state":"ME","name":"Fort Popham, Hunniwell Point","type":"R","id":"8417177","lat":43.755,"lng":-69.785},{"state":"ME","name":"Damariscove Harbor, Damariscove Island","type":"S","id":"8416796","lat":43.7583,"lng":-69.615},{"state":"ME","name":"Prince Point","type":"S","id":"8417948","lat":43.7617,"lng":-70.1733},{"state":"ME","name":"Monhegan Island","type":"S","id":"8416092","lat":43.765,"lng":-69.3217},{"state":"ME","name":"Cundy Harbor, New Meadows River","type":"S","id":"8417387","lat":43.7883,"lng":-69.8933},{"state":"ME","name":"Phippsburg","type":"S","id":"8417221","lat":43.8183,"lng":-69.81},{"state":"ME","name":"South Freeport","type":"S","id":"8417801","lat":43.82,"lng":-70.1033},{"state":"ME","name":"Wilson Cove, Middle Bay","type":"S","id":"8417553","lat":43.825,"lng":-69.9767},{"state":"ME","name":"Southport, Townsend Gut","type":"S","id":"8416908","lat":43.8467,"lng":-69.6617},{"state":"ME","name":"Boothbay Harbor","type":"S","id":"8416828","lat":43.85,"lng":-69.6283},{"state":"ME","name":"Robinhood, Sasanoa River","type":"S","id":"8417067","lat":43.8533,"lng":-69.7333},{"state":"ME","name":"Isle of Springs","type":"S","id":"8416968","lat":43.86,"lng":-69.6867},{"state":"ME","name":"Matinicus Harbor, Wheaton Island","type":"S","id":"8414876","lat":43.8617,"lng":-68.8817},{"state":"ME","name":"East Boothbay","type":"S","id":"8416721","lat":43.865,"lng":-69.5833},{"state":"ME","name":"Burnt Island, Georges Islands","type":"S","id":"8416028","lat":43.8717,"lng":-69.295},{"state":"ME","name":"New Harbor, Muscongus Bay","type":"S","id":"8416501","lat":43.875,"lng":-69.4917},{"state":"ME","name":"Pemaquid Harbor, Johns Bay","type":"S","id":"8416581","lat":43.8767,"lng":-69.525},{"state":"ME","name":"Mill Point, Sasanoa River","type":"S","id":"8417127","lat":43.8867,"lng":-69.7633},{"state":"ME","name":"Howard Point, New Meadows River","type":"S","id":"8417367","lat":43.89,"lng":-69.8833},{"state":"ME","name":"Brunswick, Androscoggin River","type":"S","id":"8417527","lat":43.9217,"lng":-69.9633},{"state":"ME","name":"Port Clyde","type":"S","id":"8415933","lat":43.925,"lng":-69.26},{"state":"ME","name":"Cross River entrance","type":"S","id":"8416928","lat":43.925,"lng":-69.67},{"state":"ME","name":"Bath","type":"R","id":"8417227","lat":43.925,"lng":-69.815},{"state":"ME","name":"Walpole","type":"R","id":"8416731","lat":43.9333,"lng":-69.58},{"state":"ME","name":"Androscoggin River entrance","type":"S","id":"8417377","lat":43.95,"lng":-69.8883},{"state":"ME","name":"Back River","type":"S","id":"8416961","lat":43.9583,"lng":-69.6833},{"state":"ME","name":"Tenants Harbor","type":"S","id":"8415809","lat":43.965,"lng":-69.2167},{"state":"ME","name":"Muscongus Harbor, Muscongus Sound","type":"S","id":"8416381","lat":43.9667,"lng":-69.4417},{"state":"ME","name":"Friendship Harbor","type":"S","id":"8416141","lat":43.97,"lng":-69.3417},{"state":"ME","name":"Sturgeon Island, Merrymeeting Bay","type":"S","id":"8417271","lat":43.9817,"lng":-69.835},{"state":"ME","name":"Otis Cove","type":"S","id":"8415867","lat":43.9867,"lng":-69.2367},{"state":"ME","name":"Wiscasset","type":"S","id":"8416921","lat":44,"lng":-69.6667},{"state":"ME","name":"Bowdoinham, Cathance River","type":"S","id":"8417391","lat":44.0083,"lng":-69.895},{"state":"ME","name":"Jones Neck","type":"S","id":"8416232","lat":44.015,"lng":-69.38},{"state":"ME","name":"Newcastle","type":"S","id":"8416608","lat":44.0333,"lng":-69.5367},{"state":"ME","name":"Vinalhaven, Vinalhaven Island","type":"S","id":"8414776","lat":44.0433,"lng":-68.84},{"state":"ME","name":"Sheepscot (below rapids)","type":"S","id":"8416804","lat":44.05,"lng":-69.6183},{"state":"ME","name":"Thomaston","type":"R","id":"8415709","lat":44.0717,"lng":-69.1817},{"state":"ME","name":"Isle Au Haut","type":"S","id":"8414288","lat":44.0733,"lng":-68.6367},{"state":"ME","name":"Richmond","type":"R","id":"8417208","lat":44.0883,"lng":-69.7983},{"state":"ME","name":"Waldoboro","type":"S","id":"8416224","lat":44.0933,"lng":-69.3767},{"state":"ME","name":"Rockland","type":"R","id":"8415490","lat":44.105,"lng":-69.1017},{"state":"ME","name":"North Haven","type":"S","id":"8414856","lat":44.1267,"lng":-68.8733},{"state":"ME","name":"Burnt Coat Harbor, Swans Island","type":"S","id":"8413857","lat":44.145,"lng":-68.45},{"state":"ME","name":"Stonington, Deer Isle","type":"S","id":"8414348","lat":44.1533,"lng":-68.6617},{"state":"ME","name":"Pulpit Harbor, North Haven Island","type":"R","id":"8414888","lat":44.1567,"lng":-68.8867},{"state":"ME","name":"Mackerel Cove, Swans Island","type":"R","id":"8413825","lat":44.16999816894531,"lng":-68.43499755859375},{"state":"ME","name":"Oceanville, Deer Isle","type":"R","id":"8414249","lat":44.19230555555556,"lng":-68.62093055555556},{"state":"ME","name":"Gardiner","type":"R","id":"8417134","lat":44.2333,"lng":-69.7667},{"state":"ME","name":"Bass Harbor","type":"S","id":"8413651","lat":44.2417,"lng":-68.3533},{"state":"ME","name":"Center Harbor","type":"S","id":"8414168","lat":44.2633,"lng":-68.5867},{"state":"ME","name":"Southwest Harbor","type":"S","id":"8413564","lat":44.275,"lng":-68.3133},{"state":"ME","name":"Little Deer Isle","type":"S","id":"8414424","lat":44.2917,"lng":-68.6933},{"state":"ME","name":"Green Island, Petit Manan Bar","type":"S","id":"8412568","lat":44.3717,"lng":-67.87},{"state":"ME","name":"Castine","type":"S","id":"8414672","lat":44.3867,"lng":-68.7967},{"state":"ME","name":"Winter Harbor, Frenchman Bay","type":"S","id":"8413079","lat":44.3883,"lng":-68.0867},{"state":"ME","name":"BAR HARBOR","type":"R","id":"8413320","lat":44.39219444444444,"lng":-68.20427777777778},{"state":"ME","name":"Prospect Harbor","type":"S","id":"8412932","lat":44.4,"lng":-68.0217},{"state":"ME","name":"Blue Hill Harbor","type":"S","id":"8414112","lat":44.4083,"lng":-68.5633},{"state":"ME","name":"Belfast","type":"S","id":"8415191","lat":44.4267,"lng":-69.005},{"state":"ME","name":"Fort Point, Penobscot River","type":"R","id":"8414721","lat":44.4717,"lng":-68.8133},{"state":"ME","name":"Steele Harbor Island","type":"S","id":"8411801","lat":44.4933,"lng":-67.5433},{"state":"ME","name":"Sandy Point","type":"S","id":"8414692","lat":44.505,"lng":-68.805},{"state":"ME","name":"Ellsworth, Union River","type":"R","id":"8413801","lat":44.535,"lng":-68.4217},{"state":"ME","name":"Gross Point, Eastern Channel","type":"S","id":"8414581","lat":44.5367,"lng":-68.7583},{"state":"ME","name":"Millbridge, Narraguagus River, Maine","type":"R","id":"8412581","lat":44.54,"lng":-67.875},{"state":"ME","name":"Bucksport","type":"S","id":"8414684","lat":44.5717,"lng":-68.8017},{"state":"ME","name":"Stone Island, Machias Bay","type":"S","id":"8411411","lat":44.6033,"lng":-67.3683},{"state":"ME","name":"Shoppee Point, Englishman Bay","type":"S","id":"8411696","lat":44.615,"lng":-67.4967},{"state":"ME","name":"Winterport","type":"S","id":"8414781","lat":44.6367,"lng":-68.8417},{"state":"ME","name":"Cutler, Naval Radio Station","type":"R","id":"8411250","lat":44.6417,"lng":-67.2967},{"state":"ME","name":"Cutler, Little River","type":"R","id":"8411060","lat":44.65702819824219,"lng":-67.20466613769531},{"state":"ME","name":"Machiasport, Machias River","type":"S","id":"8411467","lat":44.6983,"lng":-67.3933},{"state":"ME","name":"Bangor","type":"R","id":"8414612","lat":44.785,"lng":-68.7667},{"state":"ME","name":"Gravelly Point, Whiting Bay","type":"R","id":"8410864","lat":44.82333333333333,"lng":-67.15166666666667},{"state":"ME","name":"Coffins Point","type":"R","id":"8410714","lat":44.87,"lng":-67.1083},{"state":"ME","name":"Birch Islands","type":"S","id":"8410875","lat":44.875,"lng":-67.1583},{"state":"ME","name":"EASTPORT","type":"R","id":"8410140","lat":44.904598236083984,"lng":-66.98290252685547},{"state":"ME","name":"Garnet Point, Pennamquan River","type":"R","id":"8410715","lat":44.9233,"lng":-67.13},{"state":"ME","name":"Pettegrove Point, Dochet Island","type":"R","id":"8410834","lat":45.12844444444445,"lng":-67.14466666666667}]