[{"state":"","name":"Totoya Island","type":"S","id":"TPT2877","lat":-18.96666666666667,"lng":-179.81},{"state":"","name":"Gareloi Island","type":"S","id":"TWC2297","lat":51.75,"lng":-178.8},{"state":"AK","name":"Ogliuga Island (east coast)","type":"S","id":"9461081","lat":51.6033,"lng":-178.617},{"state":"","name":"Tailevu, Viti Levu Island","type":"S","id":"TPT2869","lat":-17.63333333333333,"lng":-178.5666666666667},{"state":"AK","name":"Lash Bay","type":"S","id":"9461132","lat":51.6717,"lng":-178.045},{"state":"AK","name":"Tanaga Bay","type":"S","id":"9461138","lat":51.7183,"lng":-177.997},{"state":"","name":"Raoul or Sunday Island","type":"S","id":"TPT2905","lat":-29.25,"lng":-177.93},{"state":"AK","name":"Hot Springs Bay","type":"S","id":"9461162","lat":51.7783,"lng":-177.8},{"state":"AK","name":"Cape Chunu","type":"S","id":"9461183","lat":51.665,"lng":-177.637},{"state":"","name":"Nandi Waters, Viti Levu","type":"S","id":"TPT2871","lat":-17.75,"lng":-177.4166666666667},{"state":"","name":"SAND ISLAND, MIDWAY ISLANDS","type":"R","id":"1619910","lat":28.2117,"lng":-177.3600277777778},{"state":"AK","name":"Kanaga Bay","type":"S","id":"9461264","lat":51.7183,"lng":-177.2},{"state":"AK","name":"Cape Chlanak","type":"S","id":"9461276","lat":51.71,"lng":-177.145},{"state":"AK","name":"Shoal Point","type":"S","id":"9461292","lat":51.87,"lng":-177.068},{"state":"AK","name":"Bay of Waterfalls","type":"S","id":"9461337","lat":51.6417,"lng":-176.825},{"state":"AK","name":"Unalga Bight","type":"S","id":"9461341","lat":51.78,"lng":-176.807},{"state":"","name":"Howland Island","type":"S","id":"TPT2737","lat":0.8,"lng":-176.63333333332992},{"state":"AK","name":"Sweeper Cove, Kuluk Bay, Adak Island","type":"R","id":"9461380","lat":51.86330032348633,"lng":-176.6320037841797},{"state":"AK","name":"Boot Bay","type":"S","id":"9461391","lat":51.7133,"lng":-176.53},{"state":"AK","name":"Adak Bight","type":"S","id":"9461406","lat":51.77,"lng":-176.435},{"state":"AK","name":"Laska Cove, Kagalaska Island","type":"S","id":"9461411","lat":51.825,"lng":-176.402},{"state":"AK","name":"Sand Bay, Great Sitkin Island","type":"S","id":"9461453","lat":51.9733,"lng":-176.085},{"state":"AK","name":"Bugle Point, Great Sitkin Island","type":"S","id":"9461467","lat":52.0383,"lng":-175.98},{"state":"AK","name":"Fenimore Pass","type":"S","id":"9461519","lat":51.96,"lng":-175.588},{"state":"AK","name":"Atka Pass, east end","type":"S","id":"9461555","lat":52.0067,"lng":-175.32},{"state":"","name":"Nukualofa","type":"S","id":"TPT2899","lat":-21.13333333333333,"lng":-175.2},{"state":"AK","name":"Bechevin Bay","type":"S","id":"9461582","lat":52.0367,"lng":-175.115},{"state":"AK","name":"Explorer Bay","type":"S","id":"9461656","lat":52.0733,"lng":-174.568},{"state":"AK","name":"Sagchudak Island","type":"S","id":"9461667","lat":52.0267,"lng":-174.48},{"state":"","name":"Lifuka Island","type":"S","id":"TPT2895","lat":-19.8,"lng":-174.35},{"state":"AK","name":"Martin Harbor, Korovin Bay","type":"S","id":"9461693","lat":52.2267,"lng":-174.292},{"state":"AK","name":"Cape Utalug (4 miles west of)","type":"S","id":"9461704","lat":52.1183,"lng":-174.207},{"state":"AK","name":"Atka, Nazan Bay","type":"R","id":"9461710","lat":52.23194444444444,"lng":-174.1725},{"state":"AK","name":"St. Matthew Island","type":"S","id":"9466203","lat":60.358299255371094,"lng":-172.71499633789062},{"state":"","name":"Asau Harbor, Savaii Island","type":"S","id":"TPT2859","lat":-13.5,"lng":-172.6333333333333},{"state":"","name":"Etienne Bay","type":"S","id":"TWC2321","lat":52.91669845581055,"lng":-172.61669921875},{"state":"AK","name":"Finch Cove, Seguam Island","type":"S","id":"9461945","lat":52.3917,"lng":-172.405},{"state":"","name":"APIA (Observatory), Upolu Island","type":"S","id":"1778000","lat":-13.80830555555556,"lng":-171.767},{"state":"HI","name":"Laysan Island","type":"S","id":"1619645","lat":25.7667,"lng":-171.75},{"state":"","name":"Canton Island","type":"S","id":"TPT2855","lat":-2.799999952316284,"lng":-171.71670532226562},{"state":"AK","name":"Niyrakpak Lagoon entrance","type":"S","id":"9468216","lat":63.62,"lng":-171.383},{"state":"","name":"Fakaofo Island","type":"S","id":"TPT2857","lat":-9.383333333333333,"lng":-171.25},{"state":"","name":"Amukta Island, north side","type":"S","id":"TWC2229","lat":52.51666666666701,"lng":-171.2333333333299},{"state":"AK","name":"North side","type":"S","id":"9462144","lat":52.6817,"lng":-170.707},{"state":"","name":"PAGO PAGO Harbor, Tutuila Island","type":"R","id":"1770000","lat":-14.2766667,"lng":-170.6894444},{"state":"AK","name":"East Cove","type":"S","id":"9462161","lat":52.6533,"lng":-170.563},{"state":"AK","name":"Savoonga","type":"R","id":"9468258","lat":63.67908333333333,"lng":-170.5371111111111},{"state":"AK","name":"Village Cove, St. Paul Island","type":"R","id":"9464212","lat":57.125301361083984,"lng":-170.2852020263672},{"state":"","name":"Herbert Island, west side","type":"S","id":"TWC2223","lat":52.71666666666701,"lng":-170.15},{"state":"AK","name":"Fossil River entrance","type":"S","id":"9468123","lat":63.4667,"lng":-170.017},{"state":"AK","name":"Applegate Cove, Chuginadak Island","type":"S","id":"9462239","lat":52.8617,"lng":-169.862},{"state":"","name":"Tau Island, Manua Islands","type":"S","id":"TPT2865","lat":-14.21666666666667,"lng":-169.5333333333333},{"state":"","name":"JOHNSTON ATOLL","type":"R","id":"1619000","lat":16.7383,"lng":-169.53},{"state":"AK","name":"Adugak Island","type":"S","id":"9462317","lat":52.9117,"lng":-169.165},{"state":"AK","name":"Cape Sagak","type":"S","id":"9462331","lat":52.8417,"lng":-169.043},{"state":"AK","name":"Northeast Cape","type":"R","id":"9468039","lat":63.3167,"lng":-168.967},{"state":"AK","name":"Nikolski","type":"R","id":"9462450","lat":52.94061,"lng":-168.8713055557675},{"state":"AK","name":"Okee Bay","type":"S","id":"9462354","lat":53.0167,"lng":-168.835},{"state":"AK","name":"Driftwood Bay","type":"S","id":"9462367","lat":52.9583,"lng":-168.72},{"state":"AK","name":"Kigul Island","type":"S","id":"9462398","lat":53.045,"lng":-168.442},{"state":"AK","name":"Inanudak Bay","type":"S","id":"9462408","lat":53.2967,"lng":-168.352},{"state":"AK","name":"Bogoslof Island","type":"S","id":"9462444","lat":53.93,"lng":-168.033},{"state":"AK","name":"Tin City","type":"R","id":"9469439","lat":65.55833333333334,"lng":-167.975},{"state":"AK","name":"Otter Point","type":"S","id":"9462465","lat":53.3967,"lng":-167.843},{"state":"AK","name":"Chernofski Harbor","type":"S","id":"9462501","lat":53.395,"lng":-167.533},{"state":"AK","name":"Lost River, Seward Peninsula","type":"R","id":"9469338","lat":65.39,"lng":-167.145},{"state":"","name":"Kashega Bay","type":"S","id":"TWC2187","lat":53.46666666666701,"lng":-167.08333333332993},{"state":"AK","name":"Skan Bay","type":"S","id":"9462554","lat":53.61,"lng":-167.045},{"state":"AK","name":"Kuliliak Bay","type":"S","id":"9462557","lat":53.4617,"lng":-167.02},{"state":"","name":"Eagle Bay","type":"S","id":"TWC2193","lat":53.48333333333299,"lng":-166.93333333332993},{"state":"AK","name":"Raven Bay","type":"S","id":"9462573","lat":53.475,"lng":-166.873},{"state":"AK","name":"Point Spencer, Port Clarence","type":"R","id":"9469237","lat":65.2567,"lng":-166.847},{"state":"AK","name":"Anderson Bay","type":"S","id":"9462578","lat":53.6783,"lng":-166.832},{"state":"AK","name":"Point Hope","type":"R","id":"9491873","lat":68.3417,"lng":-166.808},{"state":"AK","name":"Usof Bay","type":"S","id":"9462582","lat":53.515,"lng":-166.79},{"state":"AK","name":"Kisselen Bay, Beaver Inlet","type":"S","id":"9462606","lat":53.7133,"lng":-166.572},{"state":"AK","name":"UNALASKA","type":"R","id":"9462620","lat":53.87919444444444,"lng":-166.5403055555556},{"state":"AK","name":"Dutch Harbor, Amaknak Island","type":"S","id":"9462611","lat":53.8917,"lng":-166.537},{"state":"AK","name":"Teller, Port Clarance","type":"R","id":"9469239","lat":65.2667,"lng":-166.353},{"state":"AK","name":"Udagak Strait","type":"S","id":"9462637","lat":53.7367,"lng":-166.295},{"state":"AK","name":"English Bay","type":"S","id":"9462641","lat":53.925,"lng":-166.257},{"state":"AK","name":"Udamat Bay, Sedanka Island","type":"R","id":"9462645","lat":53.82891666666667,"lng":-166.21625},{"state":"HI","name":"East Island, French Frigate Shoals","type":"S","id":"1619222","lat":23.7833,"lng":-166.208},{"state":"AK","name":"Mekoryuk, Mekoryuk River Ent., Nunivak Island","type":"R","id":"9466217","lat":60.4167,"lng":-166.167},{"state":"","name":"Malga Bay, Unalga Island","type":"S","id":"TWC2175","lat":53.98333333333299,"lng":-166.16666666667007},{"state":"AK","name":"Dall Point","type":"R","id":"9466931","lat":61.5317,"lng":-166.148},{"state":"AK","name":"Reef Bight, Akutan Island","type":"R","id":"9462662","lat":54.13072222222223,"lng":-166.0993333333333},{"state":"AK","name":"Shishmaref Inlet","type":"R","id":"9469854","lat":66.2633,"lng":-166.02},{"state":"AK","name":"Broad Bight, Akutan Island","type":"R","id":"9462676","lat":54.06458333333333,"lng":-165.9370555555556},{"state":"","name":"Pukapuka","type":"S","id":"TPT2827","lat":-10.86666666666667,"lng":-165.8666666666667},{"state":"AK","name":"Akutan Harbor, Akutan Island","type":"S","id":"9462691","lat":54.1283,"lng":-165.808},{"state":"AK","name":"Akutan, Akutan Island","type":"R","id":"9462694","lat":54.13327777777778,"lng":-165.7773055555556},{"state":"AK","name":"Green Bight, Akutan Island","type":"R","id":"9462705","lat":54.11027777777778,"lng":-165.6613888888889},{"state":"AK","name":"Surf Bay, Akutan Bay","type":"R","id":"9462711","lat":54.15083333333333,"lng":-165.615},{"state":"AK","name":"Kun River, Scammon Bay","type":"R","id":"9467124","lat":61.84170150756836,"lng":-165.56700134277344},{"state":"AK","name":"Akun Cove, Akun Island","type":"R","id":"9462719","lat":54.2333,"lng":-165.533},{"state":"AK","name":"Trident Bay, Akun Island","type":"R","id":"9462721","lat":54.14,"lng":-165.527},{"state":"AK","name":"Rootok Island","type":"R","id":"9462723","lat":54.05222222222222,"lng":-165.5141666666667},{"state":"AK","name":"NOME","type":"R","id":"9468756","lat":64.49461111111111,"lng":-165.4396388888889},{"state":"AK","name":"Nelson Island, Tooksook Bay","type":"R","id":"9466298","lat":60.5167,"lng":-165.133},{"state":"AK","name":"Tigalda Bay, Tigalda Island","type":"R","id":"9462782","lat":54.12,"lng":-164.977},{"state":"AK","name":"SE Tigalda Island, Pacific Ocean","type":"R","id":"9462786","lat":54.10180555555556,"lng":-164.9415833333333},{"state":"AK","name":"Cape Sarichef","type":"R","id":"9462787","lat":54.6,"lng":-164.928},{"state":"AK","name":"Nunam Iqua (Sheldon Point)","type":"R","id":"9467551","lat":62.53294444444445,"lng":-164.8452777777778},{"state":"AK","name":"Scotch Cap","type":"R","id":"9462808","lat":54.39363888888889,"lng":-164.7457222222222},{"state":"AK","name":"Kivalina","type":"R","id":"9491253","lat":67.7267,"lng":-164.592},{"state":"","name":"Emmonak, Kwiguk Pass, Yukon River","type":"R","id":"9467701","lat":62.77750015258789,"lng":-164.54690551757812},{"state":"AK","name":"Cape Mordvinof","type":"S","id":"9462838","lat":54.9283,"lng":-164.467},{"state":"AK","name":"CAPE ESPENBERG, KOTZEBUE SOUND","type":"R","id":"9490096","lat":66.58569444444444,"lng":-164.2508333333333},{"state":"AK","name":"Red Dog Dock","type":"R","id":"9491094","lat":67.57580555555556,"lng":-164.0643888888889},{"state":"","name":"Kipnuk, Kuguklik River","type":"R","id":"9465951","lat":59.943199157714844,"lng":-164.04339599609375},{"state":"AK","name":"GOODHOPE BAY, KOTZEBUE SOUND","type":"R","id":"9469833","lat":66.23030090332031,"lng":-163.9040985107422},{"state":"AK","name":"Cape Chunak, AK","type":"R","id":"9462941","lat":55.06427777777778,"lng":-163.5341666666667},{"state":"","name":"Kotlik, Kotlik River","type":"R","id":"9467861","lat":63.037899017333984,"lng":-163.52650451660156},{"state":"AK","name":"St. Catherine Cove","type":"S","id":"9462944","lat":55.01,"lng":-163.507},{"state":"AK","name":"Neumans Cove, Unimak Island","type":"R","id":"9462948","lat":54.9667,"lng":-163.44},{"state":"AK","name":"False Pass, Isanotski Strait","type":"R","id":"9462955","lat":54.8583,"lng":-163.407},{"state":"","name":"Apoon Mouth, Yukon River","type":"S","id":"TWC2405","lat":63.05,"lng":-163.38333333332992},{"state":"AK","name":"Isanotski Strait Entrance, Ikatan Bay","type":"R","id":"9462961","lat":54.77844444444445,"lng":-163.3642777777778},{"state":"AK","name":"Cape Krusenstern","type":"R","id":"9490571","lat":67.05419444444445,"lng":-163.3212777777778},{"state":"AK","name":"Dora Harbor","type":"S","id":"9462971","lat":54.71,"lng":-163.267},{"state":"AK","name":"Amak Island","type":"S","id":"9462987","lat":55.4133,"lng":-163.115},{"state":"AK","name":"Grant Point, Izembek Lagoon","type":"S","id":"9463058","lat":55.27,"lng":-162.9},{"state":"AK","name":"Sanak Harbor","type":"S","id":"9459968","lat":54.4817,"lng":-162.812},{"state":"AK","name":"Deering","type":"R","id":"9469751","lat":66.09716666666667,"lng":-162.7404722222222},{"state":"AK","name":"Cold Bay","type":"R","id":"9459949","lat":55.2083,"lng":-162.698},{"state":"AK","name":"Peterson Bay","type":"S","id":"9459939","lat":54.3933,"lng":-162.637},{"state":"AK","name":"Pikmiktalik River entrance","type":"S","id":"9468011","lat":63.28,"lng":-162.602},{"state":"AK","name":"Kotzebue","type":"R","id":"9490424","lat":66.9017,"lng":-162.582},{"state":"AK","name":"North Bay, Stuart Island","type":"S","id":"9468226","lat":63.6283,"lng":-162.517},{"state":"AK","name":"Popokamute (Kokokamute), Kuskokwim River","type":"R","id":"9466057","lat":60.12327777777778,"lng":-162.5003611111111},{"state":"AK","name":"Helmick Point, southeast of","type":"R","id":"9466153","lat":60.270301818847656,"lng":-162.4102020263672},{"state":"AK","name":"Lenard Harbor, Cold Bay","type":"S","id":"9459895","lat":55.1183,"lng":-162.378},{"state":"AK","name":"King Cove","type":"R","id":"9459881","lat":55.05988888888889,"lng":-162.3261111111111},{"state":"AK","name":"Lomavik","type":"R","id":"9466328","lat":60.554298400878906,"lng":-162.29710388183594},{"state":"AK","name":"Stebbins, Norton Sound","type":"R","id":"9468151","lat":63.525001525878906,"lng":-162.29299926757812},{"state":"AK","name":"Apokak Creek entrance","type":"S","id":"9466079","lat":60.1367,"lng":-162.158},{"state":"","name":"Palmyra Island","type":"S","id":"TPT2739","lat":5.883333333333304,"lng":-162.08333333332993},{"state":"AK","name":"Carter Bay, Kuskokwim Bay","type":"R","id":"9465601","lat":59.37801666666667,"lng":-162.0293333333333},{"state":"AK","name":"St. Michael","type":"S","id":"9468132","lat":63.475,"lng":-162.027},{"state":"AK","name":"Quinhagak (Kwinak), Kanektok River","type":"R","id":"9465831","lat":59.75055277777778,"lng":-161.9154361111111},{"state":"AK","name":"Platinum","type":"R","id":"9465396","lat":59.0467,"lng":-161.818},{"state":"AK","name":"Goodnews Bay entrance","type":"S","id":"9465368","lat":59.045,"lng":-161.808},{"state":"AK","name":"Dolgoi Harbor, Dolgoi Island","type":"R","id":"9459758","lat":55.121700286865234,"lng":-161.79200744628906},{"state":"AK","name":"Bethel","type":"R","id":"9466477","lat":60.8,"lng":-161.75},{"state":"AK","name":"Ukolnoi Island","type":"S","id":"9459696","lat":55.2583,"lng":-161.537},{"state":"","name":"Settlement Point, Pavlof Bay","type":"S","id":"9463195","lat":55.5,"lng":-161.46666666667008},{"state":"AK","name":"Seal Cape, Coal Bay","type":"S","id":"9459643","lat":55.365,"lng":-161.325},{"state":"AK","name":"Shaktoolik","type":"R","id":"9468691","lat":64.38022222222222,"lng":-161.2351388888889},{"state":"","name":"Koyuk, Koyuk Inlet","type":"R","id":"9469031","lat":64.93119812011719,"lng":-161.1508026123047},{"state":"","name":"Manihiki","type":"S","id":"TPT2825","lat":-10.4166666,"lng":-161.01666666},{"state":"AK","name":"Beaver Bay","type":"S","id":"9459522","lat":55.4733,"lng":-160.84},{"state":"AK","name":"Unalakleet","type":"R","id":"9468333","lat":63.875,"lng":-160.78799438476562},{"state":"AK","name":"Zachary Bay, Unga Island","type":"R","id":"9459465","lat":55.334999084472656,"lng":-160.61700439453125},{"state":"AK","name":"Albatross Anchorage, Balboa Bay","type":"S","id":"9459464","lat":55.59,"lng":-160.613},{"state":"AK","name":"PORT MOLLER","type":"R","id":"9463502","lat":55.99,"lng":-160.562},{"state":"AK","name":"SAND POINT, POPOF ISLAND","type":"R","id":"9459450","lat":55.3316667,"lng":-160.5044444},{"state":"AK","name":"Pirate Cove, Popof Island","type":"S","id":"9459398","lat":55.3617,"lng":-160.36},{"state":"HI","name":"Nonopapa, Niihau Island","type":"S","id":"1610367","lat":21.87,"lng":-160.235},{"state":"AK","name":"Black Rock, Walrus Islands","type":"S","id":"9465182","lat":58.70830154418945,"lng":-160.18800354003906},{"state":"AK","name":"Sanborn Harbor, Nagai Island","type":"S","id":"9459311","lat":55.155,"lng":-159.995},{"state":"AK","name":"Dent Point, Stepovak Bay","type":"S","id":"9459281","lat":55.7833,"lng":-159.88},{"state":"","name":"Mist Harbor, Nagai Island","type":"S","id":"TWC2119","lat":55.13333333333299,"lng":-159.85},{"state":"","name":"Aitutaki Island","type":"S","id":"TPT2851","lat":-18.85,"lng":-159.7833333},{"state":"","name":"Avarua, Rarotonga","type":"S","id":"TPT2853","lat":-21.18333333333333,"lng":-159.7666666666667},{"state":"AK","name":"Bird Island","type":"R","id":"9459251","lat":54.83522222222222,"lng":-159.7595555555556},{"state":"HI","name":"Waimea Bay","type":"S","id":"1611401","lat":21.9567,"lng":-159.673},{"state":"AK","name":"Kulukak Point, Kulukak Bay","type":"R","id":"9465265","lat":58.84000015258789,"lng":-159.64700317382812},{"state":"","name":"Fox Bay, Kupreanof Peninsula","type":"S","id":"TWC2111","lat":55.63333333333299,"lng":-159.61666666667008},{"state":"HI","name":"Port Allen, Hanapepe Bay","type":"R","id":"1611347","lat":21.9033,"lng":-159.592},{"state":"HI","name":"Hanalei Bay","type":"S","id":"1611683","lat":22.215,"lng":-159.502},{"state":"AK","name":"Herendeen Island, Shumagin Islands","type":"R","id":"9459163","lat":55.06555555555556,"lng":-159.4186666666667},{"state":"","name":"Fanning Island","type":"S","id":"TPT2743","lat":3.85,"lng":-159.36666666667008},{"state":"HI","name":"NAWILIWILI","type":"R","id":"1611400","lat":21.9544,"lng":-159.3561},{"state":"AK","name":"Kupreanof Harbor, Paul Island","type":"S","id":"9459145","lat":55.79,"lng":-159.35},{"state":"HI","name":"Hanamaulu Bay","type":"S","id":"1611443","lat":21.995,"lng":-159.335},{"state":"","name":"Three Star Point","type":"S","id":"TWC2105","lat":55.9,"lng":-159.16666666667007},{"state":"AK","name":"Cape Constantine, Nushagak Penninsula","type":"R","id":"9464961","lat":58.52170181274414,"lng":-159.15199279785156},{"state":"AK","name":"Chiachi Island (east side)","type":"S","id":"9459085","lat":55.8433,"lng":-159.105},{"state":"AK","name":"Mitrofania Island","type":"R","id":"9459016","lat":55.89,"lng":-158.82},{"state":"AK","name":"Protection Point","type":"R","id":"9465056","lat":58.5,"lng":-158.712},{"state":"AK","name":"Meshik, Port Heiden","type":"R","id":"9464075","lat":56.90829849243164,"lng":-158.68490600585938},{"state":"AK","name":"Hump Island, Kuiukta Bay","type":"R","id":"9458964","lat":56.1133,"lng":-158.598},{"state":"AK","name":"Nushagak Bay (Clarks Point)","type":"R","id":"9465261","lat":58.8483,"lng":-158.552},{"state":"AK","name":"Snag Point","type":"R","id":"9465374","lat":59.04,"lng":-158.447},{"state":"AK","name":"Chignik, Anchorage Bay","type":"S","id":"9458917","lat":56.2967,"lng":-158.4},{"state":"AK","name":"Castle Bay, Northwest Arm","type":"R","id":"9458907","lat":56.2317,"lng":-158.347},{"state":"HI","name":"Waianae","type":"S","id":"1612482","lat":21.445,"lng":-158.192},{"state":"HI","name":"Haleiwa, Waialua Bay","type":"S","id":"1612668","lat":21.5983,"lng":-158.108},{"state":"AK","name":"Chankliut Island","type":"S","id":"9458849","lat":56.1467,"lng":-158.107},{"state":"","name":"Penrhyn (Tongareva Island)","type":"S","id":"TPT2823","lat":-9,"lng":-157.98333},{"state":"AK","name":"Kujulik Bay (North Shore)","type":"S","id":"9458819","lat":56.6133,"lng":-157.983},{"state":"HI","name":"Pearl Harbor Entrance, Bishop Point","type":"R","id":"1612366","lat":21.33,"lng":-157.967},{"state":"HI","name":"Pearl Harbor, Ford Island Ferry","type":"R","id":"1612404","lat":21.3683,"lng":-157.94},{"state":"","name":"Laie Bay","type":"S","id":"TPT2779","lat":21.65,"lng":-157.93333333332993},{"state":"HI","name":"HONOLULU","type":"R","id":"1612340","lat":21.30669444444445,"lng":-157.867},{"state":"","name":"Waikane, Kaneohe Bay","type":"S","id":"TPT2777","lat":21.5,"lng":-157.85},{"state":"AK","name":"Nakchamik Island","type":"S","id":"9458779","lat":56.3517,"lng":-157.812},{"state":"HI","name":"MOKU O LOE","type":"R","id":"1612480","lat":21.43305555555556,"lng":-157.79},{"state":"AK","name":"Unavikshak Island","type":"S","id":"9458762","lat":56.4917,"lng":-157.74},{"state":"HI","name":"Hanauma Bay","type":"S","id":"1612301","lat":21.275,"lng":-157.697},{"state":"HI","name":"Waimanalo","type":"S","id":"1612376","lat":21.335,"lng":-157.693},{"state":"AK","name":"Egegik River Ent, Bristol Bay","type":"S","id":"9464881","lat":58.2383,"lng":-157.5},{"state":"AK","name":"Middle Bluff, Kvichak Bay","type":"S","id":"9465022","lat":58.4533,"lng":-157.5},{"state":"","name":"Christmas Island","type":"S","id":"1814060","lat":1.985,"lng":-157.477},{"state":"AK","name":"Egegik","type":"S","id":"9464874","lat":58.21447222222222,"lng":-157.3805277777778},{"state":"HI","name":"Kolo","type":"S","id":"1613226","lat":21.0933,"lng":-157.197},{"state":"AK","name":"Naknek River Entrance, Kvichak B","type":"S","id":"9465183","lat":58.7217,"lng":-157.057},{"state":"HI","name":"Kaunakakai","type":"R","id":"1613198","lat":21.085,"lng":-157.032},{"state":"HI","name":"Kaumalapau, Lanai Island","type":"S","id":"1614465","lat":20.79,"lng":-156.995},{"state":"AK","name":"Kvichak","type":"S","id":"9465342","lat":58.97,"lng":-156.947},{"state":"HI","name":"Kamalo Harbor","type":"S","id":"1613077","lat":21.0483,"lng":-156.877},{"state":"AK","name":"Levelock","type":"S","id":"9465419","lat":59.1133,"lng":-156.832},{"state":"HI","name":"Pukoo Harbor","type":"S","id":"1613155","lat":21.0717,"lng":-156.8},{"state":"AK","name":"Omakstalia Point","type":"S","id":"9465174","lat":58.7067,"lng":-156.757},{"state":"AK","name":"Barrow Offshore","type":"R","id":"9494935","lat":71.36011111111111,"lng":-156.7298611111111},{"state":"AK","name":"Chowiet Island, Semidi Island","type":"R","id":"9458519","lat":56.0517,"lng":-156.698},{"state":"","name":"Lahaina","type":"S","id":"TPT2799","lat":20.883333333332992,"lng":-156.68333333332993},{"state":"","name":"Smuggler Cove","type":"S","id":"TPT2803","lat":20.516666666667007,"lng":-156.68333333332993},{"state":"AK","name":"King Salmon Airport","type":"S","id":"9465149","lat":58.6717,"lng":-156.657},{"state":"HI","name":"Kuheia Bay","type":"S","id":"1616696","lat":20.595,"lng":-156.607},{"state":"HI","name":"KAHULUI","type":"R","id":"1615680","lat":20.895,"lng":-156.4766944444444},{"state":"","name":"Kihei, Maalaea Bay","type":"S","id":"TPT2797","lat":20.78333333333299,"lng":-156.46666666667008},{"state":"HI","name":"Makena","type":"S","id":"1615202","lat":20.6567,"lng":-156.445},{"state":"AK","name":"Point Barrow","type":"S","id":"9495048","lat":71.36,"lng":-156.353},{"state":"","name":"Lees Cabins, Wide Bay","type":"S","id":"TWC2101","lat":57.43333333333299,"lng":-156.3},{"state":"AK","name":"Kanatak Lagoon, Portage Bay","type":"S","id":"9458365","lat":57.52,"lng":-156.052},{"state":"HI","name":"Kailua Kona","type":"S","id":"1617846","lat":19.6433,"lng":-156},{"state":"HI","name":"Hana","type":"S","id":"1615395","lat":20.7617,"lng":-155.987},{"state":"HI","name":"Napoopoo, Kealakekua Bay","type":"S","id":"1618021","lat":19.4767,"lng":-155.922},{"state":"HI","name":"Mahukona","type":"S","id":"1617277","lat":20.1867,"lng":-155.903},{"state":"HI","name":"Kawaihae","type":"R","id":"1617433","lat":20.0366,"lng":-155.8294},{"state":"AK","name":"Chirikof Island","type":"R","id":"9458293","lat":55.8083,"lng":-155.74},{"state":"HI","name":"Honuapo","type":"S","id":"1618578","lat":19.0883,"lng":-155.553},{"state":"AK","name":"Puale Bay","type":"R","id":"9458209","lat":57.7067,"lng":-155.393},{"state":"HI","name":"HILO","type":"R","id":"1617760","lat":19.73027777777778,"lng":-155.0555555555555},{"state":"","name":"Katmai Bay, Shelikof Strait","type":"S","id":"TWC2095","lat":58,"lng":-154.9833333333299},{"state":"AK","name":"Takli Island, Shelikof Strait","type":"S","id":"9456992","lat":58.0633,"lng":-154.477},{"state":"AK","name":"Aguchik Island, Kukak Bay","type":"R","id":"9456901","lat":58.29,"lng":-154.27},{"state":"AK","name":"Alitak, Lazy Bay","type":"R","id":"9457804","lat":56.89738888888889,"lng":-154.248},{"state":"AK","name":"Olga Bay (A. P. A. Cannery)","type":"S","id":"9457798","lat":57.1617,"lng":-154.228},{"state":"AK","name":"Moser Bay (Trap Point)","type":"S","id":"9457773","lat":57.0017,"lng":-154.148},{"state":"","name":"Sitkinak Lagoon","type":"S","id":"TWC2051","lat":56.5,"lng":-154.13333333332992},{"state":"AK","name":"Kukak, Kukak Bay","type":"S","id":"9456835","lat":58.3417,"lng":-154.117},{"state":"AK","name":"Nordyke Island, Kamishak Bay","type":"S","id":"9456822","lat":59.1783,"lng":-154.087},{"state":"AK","name":"Larsen Bay","type":"R","id":"9457724","lat":57.5333,"lng":-153.99},{"state":"AK","name":"Nukshak Island, Shelikof Strait","type":"R","id":"9456717","lat":58.3917,"lng":-153.958},{"state":"AK","name":"Mining Camp","type":"S","id":"9457671","lat":57.46,"lng":-153.817},{"state":"AK","name":"Zachar Bay","type":"S","id":"9457648","lat":57.5483,"lng":-153.735},{"state":"AK","name":"Japanese Bay","type":"R","id":"9457634","lat":56.96,"lng":-153.687},{"state":"","name":"Iliamna Bay","type":"S","id":"TWC2009","lat":59.61666666666701,"lng":-153.58333333332993},{"state":"","name":"Village Islands","type":"S","id":"TWC2067","lat":57.78333333333299,"lng":-153.55},{"state":"","name":"Three Saints Bay","type":"S","id":"TWC2047","lat":57.11666666666701,"lng":-153.5166666666701},{"state":"AK","name":"West Raspberry Island","type":"R","id":"9457535","lat":58.10716666666666,"lng":-153.3401111111111},{"state":"","name":"Northeast Arm","type":"S","id":"TWC2069","lat":57.73333333333299,"lng":-153.33333333332993},{"state":"AK","name":"Old Harbor","type":"R","id":"9457527","lat":57.20277777777778,"lng":-153.3038888888889},{"state":"","name":"Uganik Passage","type":"S","id":"TWC2071","lat":57.8,"lng":-153.3},{"state":"AK","name":"Oil Bay, Kamishak Bay","type":"S","id":"9456463","lat":59.64,"lng":-153.262},{"state":"","name":"Onion Bay","type":"S","id":"TWC2075","lat":58.05,"lng":-153.2333333333299},{"state":"AK","name":"Terror Bay","type":"R","id":"9457493","lat":57.74402777777778,"lng":-153.1954722222222},{"state":"","name":"Viekoda Bay","type":"S","id":"TWC2073","lat":57.9,"lng":-153.16666666667007},{"state":"AK","name":"Dolphin Point, Raspberry Strait","type":"S","id":"9457481","lat":58.11,"lng":-153.155},{"state":"AK","name":"Port Hobron, Sitkalidak Island","type":"S","id":"9457479","lat":57.1633,"lng":-153.152},{"state":"","name":"Dry Spruce Island","type":"S","id":"TWC2077","lat":57.95,"lng":-153.03333333332992},{"state":"","name":"Malina Bay, Shelikof Strait","type":"S","id":"TWC2085","lat":58.18333333333299,"lng":-152.95},{"state":"AK","name":"Nachalni Island","type":"R","id":"9457407","lat":57.9783,"lng":-152.925},{"state":"AK","name":"Kizhuyak Bay","type":"S","id":"9457401","lat":57.82,"lng":-152.9},{"state":"AK","name":"Port Lions, AK","type":"R","id":"9457391","lat":57.87347222222222,"lng":-152.8671111111111},{"state":"AK","name":"Uzkosti Point","type":"R","id":"9457376","lat":57.9283,"lng":-152.812},{"state":"AK","name":"Fox Bay, Whale Island","type":"S","id":"9457361","lat":57.9783,"lng":-152.755},{"state":"AK","name":"Ugak Bay (Saltery Cove)","type":"S","id":"9457351","lat":57.4817,"lng":-152.718},{"state":"","name":"Kizhuyak Point","type":"S","id":"TWC2031","lat":57.9,"lng":-152.65},{"state":"AK","name":"Tuxedni Channel","type":"S","id":"9456204","lat":60.1533,"lng":-152.635},{"state":"AK","name":"Big Bay","type":"S","id":"9457321","lat":58.555,"lng":-152.613},{"state":"AK","name":"Redfox Bay, Shuyak Strait","type":"S","id":"9457316","lat":58.4533,"lng":-152.595},{"state":"AK","name":"Snug Harbor, Cook Inlet","type":"S","id":"9456173","lat":60.10747222222222,"lng":-152.5816666666667},{"state":"","name":"Kazakof Bay, Marmot Bay","type":"S","id":"TWC2025","lat":58.13333333333299,"lng":-152.56666666667007},{"state":"AK","name":"KODIAK, Womens Bay","type":"R","id":"9457292","lat":57.73027777777778,"lng":-152.5138888888889},{"state":"AK","name":"Carry Inlet","type":"S","id":"9457293","lat":58.5867,"lng":-152.513},{"state":"AK","name":"Ouzinkie, Spruce Island","type":"R","id":"9457287","lat":57.9217,"lng":-152.498},{"state":"AK","name":"Kodiak, St. Paul Harbor","type":"S","id":"9457283","lat":57.745,"lng":-152.483},{"state":"AK","name":"Perenosa Bay","type":"S","id":"9457271","lat":58.3567,"lng":-152.448},{"state":"AK","name":"Kodiak, Port of Kodiak","type":"S","id":"9457261","lat":57.7833,"lng":-152.428},{"state":"AK","name":"Spruce Island (north side)","type":"S","id":"9457262","lat":57.9383,"lng":-152.417},{"state":"AK","name":"Andreon Bay, Shuyak Island","type":"S","id":"9457259","lat":58.5183,"lng":-152.415},{"state":"","name":"Izhut Bay","type":"S","id":"TWC2023","lat":58.21666666666701,"lng":-152.31666666667007},{"state":"AK","name":"Ushagat Island, Barren Islands","type":"S","id":"9455478","lat":58.9467,"lng":-152.268},{"state":"AK","name":"Seal Bay","type":"S","id":"9457201","lat":58.3717,"lng":-152.238},{"state":"AK","name":"Drift River Terminal","type":"S","id":"9455741","lat":60.555,"lng":-152.133},{"state":"AK","name":"Tonki Bay","type":"S","id":"9457152","lat":58.3167,"lng":-152.067},{"state":"AK","name":"Kalgin Island (north end),  Cook Inlet","type":"R","id":"9455732","lat":60.51169967651367,"lng":-151.95199584960938},{"state":"AK","name":"Anchor Point","type":"R","id":"9455606","lat":59.77197222222223,"lng":-151.8670277777778},{"state":"","name":"Marmot Island, Marmot Strait","type":"S","id":"TWC2021","lat":58.23333333333299,"lng":-151.86666666667008},{"state":"AK","name":"Port Graham","type":"S","id":"9455437","lat":59.35,"lng":-151.8266666666667},{"state":"AK","name":"Port Chatham","type":"S","id":"9455428","lat":59.2133,"lng":-151.728},{"state":"AK","name":"SELDOVIA, Kachemak Bay","type":"R","id":"9455500","lat":59.44049835205078,"lng":-151.7198944091797},{"state":"","name":"Cape Ninilchik","type":"S","id":"TWC1979","lat":60.01666666666701,"lng":-151.71666666667008},{"state":"AK","name":"Ninilchik","type":"R","id":"9455653","lat":60.055,"lng":-151.682},{"state":"AK","name":"Kasitsna Bay, Kachemak Bay","type":"R","id":"9455517","lat":59.46830555555555,"lng":-151.565},{"state":"AK","name":"Picnic Harbor, Rocky Bay","type":"S","id":"9455399","lat":59.255,"lng":-151.42},{"state":"","name":"East Foreland","type":"S","id":"TWC1989","lat":60.71666666666701,"lng":-151.41666666667007},{"state":"AK","name":"Homer, Coal Point, Kachemak Bay","type":"R","id":"9455558","lat":59.60139846801758,"lng":-151.4105987548828},{"state":"AK","name":"NIKISKI","type":"R","id":"9455760","lat":60.68330555555556,"lng":-151.398},{"state":"AK","name":"Cape Kasilof","type":"R","id":"9455711","lat":60.3367,"lng":-151.38},{"state":"AK","name":"Sadie Cove, Kachemak Bay","type":"S","id":"9455514","lat":59.49,"lng":-151.365},{"state":"AK","name":"Tutka Bay,Kachemak Bay","type":"S","id":"9455506","lat":59.4317,"lng":-151.357},{"state":"","name":"Kenai River entrance","type":"S","id":"TWC1983","lat":60.55,"lng":-151.28333333332992},{"state":"AK","name":"Chinulna Point, Cook Inlet","type":"R","id":"9455735","lat":60.5033,"lng":-151.283},{"state":"AK","name":"Halibut Cove, Kachemak Bay","type":"S","id":"9455556","lat":59.5967,"lng":-151.22},{"state":"AK","name":"Kenai City Pier","type":"S","id":"9455742","lat":60.545,"lng":-151.218},{"state":"AK","name":"North Foreland","type":"R","id":"9455869","lat":61.04330555555556,"lng":-151.163},{"state":"AK","name":"Bear Cove, Kachemak Bay","type":"R","id":"9455595","lat":59.725,"lng":-151.023},{"state":"AK","name":"Takoma Cove, Port Dick","type":"S","id":"9455347","lat":59.2617,"lng":-150.982},{"state":"AK","name":"Nuka Passage","type":"S","id":"9455308","lat":59.4083,"lng":-150.667},{"state":"AK","name":"Beauty Bay, Nuka Bay","type":"S","id":"9455304","lat":59.5267,"lng":-150.628},{"state":"AK","name":"Point Possession","type":"R","id":"9455866","lat":61.0367,"lng":-150.413},{"state":"AK","name":"Chance Cove (Lagoon)","type":"S","id":"9455249","lat":59.4883,"lng":-150.312},{"state":"","name":"Caroline Island","type":"S","id":"TPT2821","lat":-10,"lng":-150.233333},{"state":"AK","name":"Fire Island","type":"R","id":"9455912","lat":61.1733,"lng":-150.213},{"state":"AK","name":"Two Arm Bay, Harris Bay","type":"S","id":"9455217","lat":59.6617,"lng":-150.108},{"state":"AK","name":"Upper Northwestern Fiord, Harris Bay","type":"R","id":"9455204","lat":59.79,"lng":-150.032},{"state":"AK","name":"Port MacKenzie","type":"R","id":"9455934","lat":61.2682991027832,"lng":-149.91700744628906},{"state":"AK","name":"ANCHORAGE, Knik Arm","type":"R","id":"9455920","lat":61.2375,"lng":-149.8904},{"state":"AK","name":"Goose Creek, Knik Arm, Cook Inlet","type":"R","id":"9455963","lat":61.3933,"lng":-149.847},{"state":"AK","name":"Crater Bay, Harris Bay","type":"R","id":"9455159","lat":59.7133,"lng":-149.787},{"state":"AK","name":"Camp Cove, Aialik Bay","type":"R","id":"9455151","lat":59.6933,"lng":-149.748},{"state":"AK","name":"Aialik Sill, Aialik Bay","type":"R","id":"9455146","lat":59.885,"lng":-149.718},{"state":"AK","name":"Aialik Bay, North end","type":"R","id":"9455145","lat":59.9533,"lng":-149.715},{"state":"AK","name":"Bear Cove, Aialik Peninsula","type":"S","id":"9455128","lat":59.8017,"lng":-149.615},{"state":"AK","name":"Agnes Cove, Aialik Peninsula","type":"R","id":"9455120","lat":59.7733,"lng":-149.588},{"state":"","name":"Papeete Harbor, Fare Ute Point","type":"R","id":"1732417","lat":-17.535,"lng":-149.572},{"state":"","name":"Tubuai Island","type":"S","id":"TPT2849","lat":-23.36666666666667,"lng":-149.4666666666667},{"state":"AK","name":"Seward, Resurrection Bay","type":"R","id":"9455090","lat":60.12,"lng":-149.4266667},{"state":"AK","name":"Day Harbor","type":"S","id":"9455036","lat":60.01,"lng":-149.062},{"state":"AK","name":"Whittier, Passage Canal","type":"R","id":"9454949","lat":60.7783,"lng":-148.665},{"state":"AK","name":"PRUDHOE BAY","type":"R","id":"9497645","lat":70.41141666666667,"lng":-148.5317777777778},{"state":"AK","name":"Kings Bay, Port Nellie Juan","type":"S","id":"9454887","lat":60.5417,"lng":-148.46},{"state":"AK","name":"Long Bay Entrance, Culross Passage","type":"S","id":"9454825","lat":60.6917,"lng":-148.263},{"state":"AK","name":"Point Elrington, Elrington Island","type":"R","id":"9454814","lat":59.9383,"lng":-148.227},{"state":"AK","name":"Hogg Bay, Port Bainbridge","type":"S","id":"9454805","lat":60.0767,"lng":-148.195},{"state":"AK","name":"Culross Bay, Wells Passage","type":"S","id":"9454798","lat":60.7417,"lng":-148.172},{"state":"AK","name":"Applegate Island","type":"S","id":"9454794","lat":60.6233,"lng":-148.165},{"state":"AK","name":"Chenega Island, Dangerous Passage","type":"S","id":"9454787","lat":60.33,"lng":-148.143},{"state":"AK","name":"Chenega Island, southwest end","type":"S","id":"9454777","lat":60.2833,"lng":-148.113},{"state":"AK","name":"Sawmill Bay, Evans Island","type":"S","id":"9454764","lat":60.0517,"lng":-148.065},{"state":"AK","name":"Eshamy Lagoon","type":"S","id":"9454757","lat":60.4617,"lng":-148.045},{"state":"AK","name":"Bainbridge Point, Bainbridge Island","type":"R","id":"9454755","lat":60.19670104980469,"lng":-148.04200744628906},{"state":"AK","name":"Guguak","type":"R","id":"9454751","lat":60.1,"lng":-148.038},{"state":"AK","name":"Eshamy Bay, Knight Island Passage","type":"S","id":"9454735","lat":60.4483,"lng":-147.978},{"state":"AK","name":"Perry Island (South Bay)","type":"R","id":"9454721","lat":60.6717,"lng":-147.932},{"state":"AK","name":"Latouche, Latouche Island","type":"S","id":"9454713","lat":60.0533,"lng":-147.907},{"state":"AK","name":"Macleod Harbor","type":"S","id":"9454674","lat":59.89,"lng":-147.795},{"state":"AK","name":"Herring Point","type":"R","id":"9454691","lat":60.475,"lng":-147.792},{"state":"AK","name":"Port Audrey","type":"S","id":"9454673","lat":60.3433,"lng":-147.768},{"state":"AK","name":"Point Helen","type":"S","id":"9454671","lat":60.1533,"lng":-147.767},{"state":"","name":"Rahiroa (Rangiroa) Island","type":"S","id":"TPT2839","lat":-14.95,"lng":-147.7333333333333},{"state":"AK","name":"Snug Harbor, Knight Island","type":"R","id":"9454662","lat":60.25,"lng":-147.717},{"state":"AK","name":"Bay of Isles, South Arm","type":"R","id":"9454652","lat":60.3667,"lng":-147.7},{"state":"","name":"Hanning Bay","type":"S","id":"TWC1893","lat":59.95,"lng":-147.68333333332993},{"state":"AK","name":"Louis Bay","type":"S","id":"9454642","lat":60.4617,"lng":-147.672},{"state":"AK","name":"5 miles NE of Point Brazil, Montague Island","type":"R","id":"9454616","lat":60.025,"lng":-147.592},{"state":"AK","name":"Patton Bay","type":"S","id":"9454574","lat":59.9067,"lng":-147.45},{"state":"AK","name":"Gibbon Anchorage, Green Island","type":"S","id":"9454573","lat":60.27,"lng":-147.438},{"state":"AK","name":"Seal Island","type":"R","id":"9454564","lat":60.425,"lng":-147.41},{"state":"AK","name":"Wooded Islands","type":"R","id":"9454562","lat":59.875,"lng":-147.403},{"state":"AK","name":"Perch Point","type":"R","id":"9454561","lat":60.1267,"lng":-147.395},{"state":"AK","name":"Naked Island, McPherson Passage","type":"S","id":"9454563","lat":60.6833,"lng":-147.388},{"state":"","name":"Smith Island","type":"S","id":"TWC1907","lat":60.53333333333299,"lng":-147.31666666667007},{"state":"AK","name":"Port Chalmers","type":"S","id":"9454511","lat":60.2418,"lng":-147.249},{"state":"AK","name":"Jackson Cove, Glacier Island","type":"S","id":"9454507","lat":60.88,"lng":-147.223},{"state":"AK","name":"Busby Island","type":"S","id":"9454374","lat":60.8983,"lng":-146.782},{"state":"AK","name":"Rocky Point","type":"S","id":"9454363","lat":60.9467,"lng":-146.755},{"state":"","name":"Snug Corner Cove, Port Fidalgo","type":"S","id":"TWC1909","lat":60.73333333333299,"lng":-146.65},{"state":"AK","name":"Cape Hinchinbrook","type":"R","id":"9454329","lat":60.23830032348633,"lng":-146.6479949951172},{"state":"AK","name":"Jack Bay","type":"S","id":"9454309","lat":61.04,"lng":-146.615},{"state":"AK","name":"Johnstone Point","type":"S","id":"9454319","lat":60.4817,"lng":-146.61},{"state":"","name":"Port Etches","type":"S","id":"TWC1887","lat":60.333333333332995,"lng":-146.55},{"state":"AK","name":"Landlocked Bay, Port Fidalgo","type":"S","id":"9454296","lat":60.8533,"lng":-146.535},{"state":"AK","name":"VALDEZ, Port Valdez","type":"R","id":"9454240","lat":61.12419444444444,"lng":-146.3631111111111},{"state":"AK","name":"Middleton Island (north end)","type":"S","id":"9454224","lat":59.4617,"lng":-146.31},{"state":"AK","name":"Comfort Cove, Port Gravina","type":"S","id":"9454157","lat":60.71,"lng":-146.085},{"state":"AK","name":"Shag Rock","type":"S","id":"9454125","lat":60.465,"lng":-145.988},{"state":"","name":"Gravel Point","type":"S","id":"TWC1875","lat":60.46666666666701,"lng":-145.96666666667008},{"state":"","name":"Windy Bay, Hawkins Island","type":"S","id":"TWC1881","lat":60.56666666666701,"lng":-145.96666666667008},{"state":"","name":"Flaxman Island","type":"S","id":"TWC2423","lat":70.183333333333,"lng":-145.83333333332993},{"state":"AK","name":"CORDOVA","type":"R","id":"9454050","lat":60.5583,"lng":-145.755},{"state":"","name":"Orca","type":"S","id":"TWC1879","lat":60.583333333332995,"lng":-145.71666666667008},{"state":"","name":"Eyak River entrance","type":"S","id":"TWC1869","lat":60.46666666666701,"lng":-145.66666666667007},{"state":"","name":"Pete Dahl Slough","type":"S","id":"TWC1867","lat":60.38333333333299,"lng":-145.4},{"state":"","name":"Wingham Island, Controller Bay","type":"S","id":"TWC1863","lat":60.05,"lng":-144.4},{"state":"","name":"Rapa (Oparo) Island","type":"S","id":"TPT2847","lat":-27.6,"lng":-144.2833333333333},{"state":"AK","name":"Barter Island","type":"R","id":"9499176","lat":70.12855555555555,"lng":-143.6110277777778},{"state":"AK","name":"Icy Bay","type":"S","id":"9453456","lat":59.885,"lng":-141.457},{"state":"AK","name":"Moraine Bay, Icy Bay","type":"R","id":"9453443","lat":59.93000030517578,"lng":-141.36300659179688},{"state":"AK","name":"Tyndall Glacier, Icy Bay","type":"S","id":"9453431","lat":60.0783,"lng":-141.275},{"state":"","name":"Hao (Bow or La Harpe) Island","type":"S","id":"TPT2837","lat":-18.06666666666667,"lng":-140.9833333333333},{"state":"","name":"Suwarrow (Suvarov) Island","type":"S","id":"TPT2829","lat":-18.06666666,"lng":-140.9833333},{"state":"","name":"Taio Hae Bay, Nuku Hiva Island","type":"S","id":"TPT2831","lat":-8.933333333333334,"lng":-140.1},{"state":"AK","name":"Yakutat, Yakutat Bay","type":"R","id":"9453220","lat":59.5485,"lng":-139.7334},{"state":"AK","name":"Johnstone Passage, Yakutat Bay","type":"S","id":"9453215","lat":59.5817,"lng":-139.702},{"state":"AK","name":"Point Latouche, Yakutat Bay","type":"S","id":"9453210","lat":59.9033,"lng":-139.627},{"state":"AK","name":"Redfield Cove, Yakutat Bay","type":"S","id":"9453208","lat":59.6117,"lng":-139.58},{"state":"","name":"Vai Tahu, Tahu Ata Island","type":"S","id":"TPT2833","lat":-9.933333333333334,"lng":-139.1},{"state":"AK","name":"Lituya Bay, 2 miles inside entrance","type":"S","id":"9452928","lat":58.6167,"lng":-137.65},{"state":"AK","name":"Tarr Inlet, Glacier Bay","type":"R","id":"9452749","lat":58.96477777777778,"lng":-136.8775833333333},{"state":"AK","name":"Dixon Harbor","type":"S","id":"9452747","lat":58.3833,"lng":-136.867},{"state":"AK","name":"Graves Harbor","type":"S","id":"9452704","lat":58.2767,"lng":-136.678},{"state":"AK","name":"Composite Island","type":"S","id":"9452682","lat":58.8883,"lng":-136.573},{"state":"AK","name":"Surge Bay","type":"S","id":"9452672","lat":58.0183,"lng":-136.528},{"state":"AK","name":"Takanis Bay","type":"S","id":"9452671","lat":57.9283,"lng":-136.52},{"state":"AK","name":"Canoe Cove, North Pass","type":"S","id":"9452649","lat":57.8467,"lng":-136.422},{"state":"AK","name":"Elfin Cove, Port Althorp","type":"R","id":"9452634","lat":58.19472,"lng":-136.34694444444443},{"state":"AK","name":"Miner Island","type":"S","id":"9452633","lat":58.01,"lng":-136.342},{"state":"AK","name":"Wachusett Inlet, Glacier Bay","type":"S","id":"9452632","lat":58.9467,"lng":-136.333},{"state":"AK","name":"Inian Cove, North Inian Pass","type":"S","id":"9452629","lat":58.2633,"lng":-136.325},{"state":"AK","name":"Pelican Harbor, Lisianski Inlet, AK","type":"R","id":"9452611","lat":57.95777777777778,"lng":-136.2267777777778},{"state":"AK","name":"Willoughby Island","type":"S","id":"9452586","lat":58.6083,"lng":-136.117},{"state":"AK","name":"Muir Inlet","type":"S","id":"9452584","lat":58.9133,"lng":-136.108},{"state":"AK","name":"Kimshan Cove, Ogden Passage","type":"S","id":"9452583","lat":57.6867,"lng":-136.107},{"state":"AK","name":"Elbow Passage, Klag Bay","type":"S","id":"9452579","lat":57.6133,"lng":-136.087},{"state":"AK","name":"Mud Bay, Goose Island","type":"S","id":"9452567","lat":58.2117,"lng":-136.035},{"state":"","name":"Falcon Arm, Slocum Arm","type":"S","id":"TWC1789","lat":57.55,"lng":-135.93333333332993},{"state":"AK","name":"Klokachef Island","type":"S","id":"9451858","lat":57.4167,"lng":-135.89},{"state":"AK","name":"Bartlett Cove","type":"S","id":"9452534","lat":58.4567,"lng":-135.883},{"state":"AK","name":"Point Adolphus","type":"S","id":"9452516","lat":58.2867,"lng":-135.803},{"state":"AK","name":"Scraggy Point","type":"S","id":"9451802","lat":57.3367,"lng":-135.723},{"state":"AK","name":"Scraggy Island","type":"R","id":"9451805","lat":57.34,"lng":-135.707},{"state":"AK","name":"Serguis Narrows","type":"R","id":"9451853","lat":57.41,"lng":-135.627},{"state":"AK","name":"Haley Anchorage, Fish Bay","type":"S","id":"9451826","lat":57.3717,"lng":-135.618},{"state":"AK","name":"Bear Bay","type":"S","id":"9451859","lat":57.4183,"lng":-135.583},{"state":"AK","name":"Whitestone Narrows, Neva Strait","type":"R","id":"9451741","lat":57.25,"lng":-135.567},{"state":"AK","name":"Povorotni Island, Pogibshi Point","type":"R","id":"9451936","lat":57.515,"lng":-135.555},{"state":"AK","name":"Olga Point, Olga Strait","type":"S","id":"9451725","lat":57.2283,"lng":-135.537},{"state":"AK","name":"Symonds Bay, Biorka Island","type":"S","id":"9451468","lat":56.8567,"lng":-135.52},{"state":"AK","name":"Excursion Inlet, North End","type":"S","id":"9452447","lat":58.4967,"lng":-135.488},{"state":"AK","name":"Excursion Inlet Entrance","type":"S","id":"9452437","lat":58.4167,"lng":-135.447},{"state":"AK","name":"Hoonah, Port Fredrick","type":"R","id":"9452438","lat":58.10755555555556,"lng":-135.4441944444444},{"state":"AK","name":"Haines Inlet","type":"S","id":"9452435","lat":59.23,"lng":-135.433},{"state":"AK","name":"Taiyasanka Harbor, Taiya Inlet","type":"S","id":"9452434","lat":59.3017,"lng":-135.428},{"state":"AK","name":"Nismeni Cove","type":"S","id":"9451979","lat":57.5617,"lng":-135.412},{"state":"AK","name":"Chilkat Inlet","type":"R","id":"9452421","lat":59.17,"lng":-135.4},{"state":"AK","name":"Golf Island, Necker Island","type":"R","id":"9451421","lat":56.7867,"lng":-135.393},{"state":"AK","name":"SITKA","type":"R","id":"9451600","lat":57.05169444444444,"lng":-135.342},{"state":"AK","name":"Skagway, Taiya Inlet","type":"R","id":"9452400","lat":59.45,"lng":-135.327},{"state":"","name":"Point Elizabeth","type":"S","id":"TWC1783","lat":57.51666666666701,"lng":-135.28333333332992},{"state":"AK","name":"William Henry Bay","type":"S","id":"9452391","lat":58.7133,"lng":-135.232},{"state":"AK","name":"Tenakee Springs, Tenakee Inlet","type":"S","id":"9452386","lat":57.78,"lng":-135.212},{"state":"AK","name":"Swanson Harbor","type":"S","id":"9452368","lat":58.215,"lng":-135.127},{"state":"AK","name":"Dorothy Cove, Necker Bay","type":"S","id":"9451376","lat":56.7217,"lng":-135.075},{"state":"","name":"Lindenburg Head","type":"S","id":"TWC1785","lat":57.45,"lng":-135.03333333332992},{"state":"AK","name":"Cove Point, Berner's Bay","type":"S","id":"9452346","lat":58.7517,"lng":-135.028},{"state":"","name":"Freshwater Bay, Chichagof Island","type":"S","id":"TWC1743","lat":57.85,"lng":-135.0166666666701},{"state":"","name":"Mangareva Island","type":"S","id":"TPT2835","lat":-23.13333333333333,"lng":-134.9666666666667},{"state":"AK","name":"Lincoln Island","type":"S","id":"9452336","lat":58.4983,"lng":-134.965},{"state":"AK","name":"False Bay, Chatham Strait","type":"R","id":"9452328","lat":57.9667,"lng":-134.935},{"state":"AK","name":"Funter, Funter Bay","type":"S","id":"9452321","lat":58.255,"lng":-134.895},{"state":"","name":"Fairway Island","type":"S","id":"TWC1787","lat":57.45,"lng":-134.88333333332992},{"state":"AK","name":"Barlow Cove, Mansfield Peninsula","type":"S","id":"9452318","lat":58.3217,"lng":-134.878},{"state":"AK","name":"Kasnyku Bay","type":"S","id":"9451717","lat":57.2167,"lng":-134.868},{"state":"","name":"Point Thatcher","type":"S","id":"TWC1735","lat":57.416666666667005,"lng":-134.85},{"state":"AK","name":"Baranof, Warm Spring Bay","type":"R","id":"9451625","lat":57.08833333333333,"lng":-134.825},{"state":"AK","name":"Hawk Inlet Entrance","type":"R","id":"9452294","lat":58.085,"lng":-134.777},{"state":"AK","name":"Red Bluff Bay","type":"R","id":"9451467","lat":56.8567,"lng":-134.723},{"state":"AK","name":"Port Walter, Baranof Island","type":"S","id":"9451151","lat":56.3917,"lng":-134.66},{"state":"AK","name":"Port Alexander, Baranof Island","type":"R","id":"9451054","lat":56.2467,"lng":-134.647},{"state":"AK","name":"Auke Bay","type":"S","id":"9452263","lat":58.3817,"lng":-134.645},{"state":"","name":"Fritz Cove, Douglas Island","type":"S","id":"TWC1697","lat":58.31666666666701,"lng":-134.6},{"state":"","name":"Whitewater Bay, Admiralty Island","type":"S","id":"TWC1731","lat":57.23333333333299,"lng":-134.6},{"state":"AK","name":"Young Bay","type":"S","id":"9452249","lat":58.1833,"lng":-134.587},{"state":"AK","name":"Killisnoo","type":"S","id":"9451895","lat":57.47,"lng":-134.565},{"state":"","name":"Favorite Bay","type":"S","id":"TWC1739","lat":57.48333333333299,"lng":-134.55},{"state":"AK","name":"Target Island, Mitchell Bay","type":"R","id":"9451953","lat":57.5333,"lng":-134.417},{"state":"AK","name":"JUNEAU","type":"R","id":"9452210","lat":58.2983,"lng":-134.412},{"state":"","name":"Mitchell Bay","type":"S","id":"TWC1741","lat":57.53333333333299,"lng":-134.4},{"state":"AK","name":"Herring Bay","type":"S","id":"9451634","lat":57.1133,"lng":-134.38},{"state":"AK","name":"Saginaw Bay, Kuiu Island","type":"R","id":"9451497","lat":56.90333333333334,"lng":-134.3030555555556},{"state":"AK","name":"Eliza Harbor, Admiralty Island","type":"S","id":"9451706","lat":57.1883,"lng":-134.287},{"state":"","name":"Eliza Harbor, Liesnoi Island","type":"S","id":"TWC1669","lat":57.166666666667005,"lng":-134.28333333332992},{"state":"","name":"Windfall Harbor, Seymour Canal","type":"S","id":"TWC1683","lat":57.86666666666701,"lng":-134.2666666666701},{"state":"AK","name":"Table Bay, Kuiu Island","type":"S","id":"9451001","lat":56.1667,"lng":-134.245},{"state":"AK","name":"Port Malmesbury, Kuiu Island","type":"S","id":"9451093","lat":56.305,"lng":-134.238},{"state":"","name":"Tebenkof Bay, Kuiu Island","type":"S","id":"TWC1723","lat":56.416666666667005,"lng":-134.13333333332992},{"state":"AK","name":"Kell Bay, Affleck Canal, Kuiu Island","type":"S","id":"9450988","lat":56.15,"lng":-134.133},{"state":"AK","name":"Cannery Cove, Pybus Bay","type":"S","id":"9451781","lat":57.3067,"lng":-134.133},{"state":"AK","name":"Coronation Island","type":"S","id":"9450829","lat":55.9033,"lng":-134.118},{"state":"","name":"Port McArthur, Kuiu Island","type":"S","id":"TWC1593","lat":56.06666666666701,"lng":-134.11666666667008},{"state":"AK","name":"Affleck Canal entrance, Kuiu Island","type":"S","id":"9450913","lat":56.0369,"lng":-134.115},{"state":"AK","name":"Greely Point, Taku Inlet","type":"S","id":"9452133","lat":58.2233,"lng":-134.06},{"state":"AK","name":"Rasp Ledge, Seymour Canal","type":"S","id":"9452128","lat":57.6783,"lng":-134.038},{"state":"AK","name":"Taku Point, Taku Inlet","type":"S","id":"9452124","lat":58.4,"lng":-134.015},{"state":"AK","name":"Taku Harbor","type":"S","id":"9452123","lat":58.0683,"lng":-134.012},{"state":"AK","name":"Point St. Albans","type":"S","id":"9450943","lat":56.0817,"lng":-133.97},{"state":"AK","name":"Port Beauclerc, Kuiu Island","type":"S","id":"9451082","lat":56.2883,"lng":-133.962},{"state":"AK","name":"Gambier Bay (cannery wharf)","type":"S","id":"9451906","lat":57.4833,"lng":-133.96},{"state":"AK","name":"Good Island, Gambier Bay","type":"S","id":"9451909","lat":57.4867,"lng":-133.898},{"state":"AK","name":"Kake Harbor, Keku Strait","type":"R","id":"9451528","lat":56.94830555555556,"lng":-133.8947222222222},{"state":"","name":"Port Snettisham, Point Styleman","type":"S","id":"TWC1687","lat":57.96666666666701,"lng":-133.88333333332992},{"state":"AK","name":"Reid Bay","type":"S","id":"9451148","lat":56.3883,"lng":-133.883},{"state":"AK","name":"Pole Anchorage, Kosciusko Island","type":"S","id":"9450862","lat":55.955,"lng":-133.81},{"state":"AK","name":"The Brothers","type":"R","id":"9451785","lat":57.295,"lng":-133.797},{"state":"AK","name":"Sumner Island","type":"S","id":"9451163","lat":56.41,"lng":-133.793},{"state":"AK","name":"Entrance Island","type":"R","id":"9451438","lat":56.8117,"lng":-133.787},{"state":"AK","name":"Monte Carlo Island","type":"R","id":"9451247","lat":56.535,"lng":-133.767},{"state":"AK","name":"Port Snettisham, Crib Point","type":"S","id":"9452082","lat":58.0967,"lng":-133.742},{"state":"AK","name":"The Summit","type":"R","id":"9451349","lat":56.68242222222222,"lng":-133.7369083333333},{"state":"AK","name":"Edna Bay","type":"S","id":"9450859","lat":55.95,"lng":-133.662},{"state":"AK","name":"Steamboat Bay, Noyes Island","type":"S","id":"9450578","lat":55.5333,"lng":-133.637},{"state":"AK","name":"Shakan Bay Entrance","type":"S","id":"9450982","lat":56.14,"lng":-133.61},{"state":"AK","name":"Port Alice, Heceta Island","type":"S","id":"9450768","lat":55.8117,"lng":-133.605},{"state":"AK","name":"Holkham Bay, Tracy Arm Entrance","type":"S","id":"9452067","lat":57.76,"lng":-133.603},{"state":"AK","name":"Port Protection, Prince of Wales Island.","type":"S","id":"9451095","lat":56.3083,"lng":-133.6},{"state":"AK","name":"Anguilla Island","type":"S","id":"9450679","lat":55.6833,"lng":-133.587},{"state":"AK","name":"Holkham Bay, Wood Spit","type":"S","id":"9452064","lat":57.7183,"lng":-133.578},{"state":"AK","name":"Cleveland Passage, Whitney Island","type":"S","id":"9451718","lat":57.2183,"lng":-133.512},{"state":"AK","name":"Windham Bay","type":"S","id":"9451962","lat":57.5433,"lng":-133.498},{"state":"","name":"Marble Island","type":"S","id":"TWC1583","lat":56,"lng":-133.46666666667008},{"state":"","name":"Port Houghton, Robert Islands","type":"S","id":"TWC1673","lat":57.3,"lng":-133.46666666667008},{"state":"AK","name":"Shakan Strait, Kosciusko Island","type":"S","id":"9450987","lat":56.1483,"lng":-133.46},{"state":"AK","name":"Hobart Bay","type":"S","id":"9451851","lat":57.4067,"lng":-133.42},{"state":"AK","name":"El Capitan Passage, Dry Pass","type":"R","id":"9450998","lat":56.1633,"lng":-133.413},{"state":"","name":"Cyrus Cove, Sea Otter Sound","type":"S","id":"TWC1579","lat":55.916666666667005,"lng":-133.4},{"state":"AK","name":"Nossuk Bay, Tonowek Bay","type":"R","id":"9450711","lat":55.72166666666666,"lng":-133.35},{"state":"AK","name":"El Capitan Passage, W. of Aneskett Pt.","type":"R","id":"9450997","lat":56.1633,"lng":-133.33},{"state":"AK","name":"El Capitan Island","type":"S","id":"9450851","lat":55.9367,"lng":-133.325},{"state":"","name":"Portage Bay, Kupreanof Island","type":"S","id":"TWC1663","lat":57,"lng":-133.31666666667007},{"state":"AK","name":"Cruz Pass, San Fernando Island","type":"S","id":"9450584","lat":55.5417,"lng":-133.315},{"state":"AK","name":"El Capitan Passage, S. of Devilfish Bay","type":"S","id":"9450937","lat":56.0733,"lng":-133.313},{"state":"AK","name":"Tuxekan, 0.5 mile south of","type":"S","id":"9450817","lat":55.8833,"lng":-133.243},{"state":"AK","name":"Sakie Bay","type":"S","id":"9450272","lat":55.0667,"lng":-133.2},{"state":"AK","name":"Sawyer Island, Tracy Arm","type":"S","id":"9452022","lat":57.8783,"lng":-133.19},{"state":"AK","name":"Sea Otter Harbor","type":"S","id":"9450312","lat":55.1267,"lng":-133.167},{"state":"AK","name":"Craig, Klawock Inlet","type":"R","id":"9450551","lat":55.4883,"lng":-133.142},{"state":"AK","name":"Block Island, Tlevak Narrows","type":"S","id":"9450406","lat":55.263301849365234,"lng":-133.11500549316406},{"state":"AK","name":"Upper Endicott Arm, North Shore","type":"S","id":"9452005","lat":57.5217,"lng":-133.055},{"state":"AK","name":"Natalia Point","type":"S","id":"9450387","lat":55.2333,"lng":-133.043},{"state":"AK","name":"View Cove","type":"S","id":"9450283","lat":55.0833,"lng":-133.017},{"state":"AK","name":"Beecher Pass","type":"R","id":"9451287","lat":56.595,"lng":-132.987},{"state":"AK","name":"Bushy Island, Snow Passage","type":"R","id":"9451074","lat":56.2767,"lng":-132.985},{"state":"AK","name":"Turn Point","type":"R","id":"9451434","lat":56.8,"lng":-132.98},{"state":"AK","name":"Thorne Island, Whale Passage","type":"S","id":"9450938","lat":56.0583,"lng":-132.968},{"state":"AK","name":"Soda Bay","type":"S","id":"9450413","lat":55.275,"lng":-132.967},{"state":"AK","name":"Point Lockwood, Woewodski Island","type":"R","id":"9451263","lat":56.5583,"lng":-132.963},{"state":"AK","name":"Petersburg","type":"S","id":"9451439","lat":56.815,"lng":-132.957},{"state":"AK","name":"Big Salt Lake","type":"R","id":"9450623","lat":55.6,"lng":-132.95},{"state":"AK","name":"North Pass, West End","type":"S","id":"9450366","lat":55.205,"lng":-132.94},{"state":"AK","name":"TROCADERO BAY","type":"R","id":"9450463","lat":55.35166666666667,"lng":-132.9380555555556},{"state":"AK","name":"Papke's Landing","type":"R","id":"9451346","lat":56.6767,"lng":-132.933},{"state":"AK","name":"Anchor Point","type":"R","id":"9451317","lat":56.6383,"lng":-132.927},{"state":"AK","name":"Lake Bay","type":"S","id":"9450904","lat":56.0233,"lng":-132.92},{"state":"AK","name":"Blashke Island","type":"S","id":"9450973","lat":56.1267,"lng":-132.895},{"state":"AK","name":"South Pass, Sukkwan Strait","type":"S","id":"9450341","lat":55.1667,"lng":-132.87},{"state":"AK","name":"Beck Island, Clarence Strait","type":"S","id":"9450906","lat":56.0467,"lng":-132.862},{"state":"AK","name":"Security Cove","type":"S","id":"9450055","lat":54.7483,"lng":-132.855},{"state":"AK","name":"American Bay, Kaigani Strait","type":"S","id":"9450125","lat":54.85,"lng":-132.83},{"state":"AK","name":"HYDABURG, SUKKWAN STRAIT","type":"R","id":"9450364","lat":55.201698303222656,"lng":-132.822998046875},{"state":"","name":"Brown Cove","type":"S","id":"TWC1659","lat":56.88333333333299,"lng":-132.8},{"state":"AK","name":"Saltery Point","type":"S","id":"9450351","lat":55.1817,"lng":-132.795},{"state":"AK","name":"Thomas Bay","type":"S","id":"9451561","lat":56.9967,"lng":-132.785},{"state":"","name":"Kasook Inlet, Sukkwan Island","type":"S","id":"TWC1513","lat":55.01666666666701,"lng":-132.78333333332992},{"state":"AK","name":"Point Harrington","type":"R","id":"9451005","lat":56.1783,"lng":-132.697},{"state":"AK","name":"Elbow Bay","type":"S","id":"9450158","lat":54.9,"lng":-132.653},{"state":"AK","name":"Hollis Anchorage","type":"S","id":"9450544","lat":55.48,"lng":-132.645},{"state":"","name":"Ideal Cove, Mitkof Island","type":"S","id":"TWC1657","lat":56.666666666667005,"lng":-132.63333333332992},{"state":"AK","name":"Mud Bay","type":"S","id":"9450282","lat":55.0817,"lng":-132.632},{"state":"AK","name":"Copper Harbor","type":"S","id":"9450369","lat":55.21,"lng":-132.625},{"state":"AK","name":"Sulzer","type":"S","id":"9450421","lat":55.285,"lng":-132.622},{"state":"AK","name":"Cosmos Point","type":"S","id":"9451335","lat":56.6633,"lng":-132.617},{"state":"AK","name":"Ratz Harbor, Prince of Wales Island","type":"S","id":"9450815","lat":55.88,"lng":-132.595},{"state":"AK","name":"Mabel Island","type":"S","id":"9450226","lat":55,"lng":-132.592},{"state":"AK","name":"Keete Island, Nutkwa Inlets","type":"S","id":"9450258","lat":55.0467,"lng":-132.577},{"state":"AK","name":"Dry Strait","type":"S","id":"9451301","lat":56.615,"lng":-132.575},{"state":"AK","name":"Reef Point, Stikine Strait","type":"R","id":"9451124","lat":56.3533,"lng":-132.553},{"state":"AK","name":"Greys Island","type":"S","id":"9451238","lat":56.5217,"lng":-132.542},{"state":"AK","name":"Kassa Inlet entrance","type":"S","id":"9450176","lat":54.9267,"lng":-132.522},{"state":"AK","name":"Lindeman Cove","type":"R","id":"9450625","lat":55.6017,"lng":-132.512},{"state":"AK","name":"Leconte Bay","type":"R","id":"9451422","lat":56.7883,"lng":-132.502},{"state":"AK","name":"Keete Inlet","type":"S","id":"9450281","lat":55.08,"lng":-132.49},{"state":"AK","name":"Kasaan","type":"S","id":"9450581","lat":55.535,"lng":-132.397},{"state":"AK","name":"Wrangell, Wrangell Island","type":"R","id":"9451204","lat":56.47,"lng":-132.387},{"state":"","name":"Tah Bay","type":"S","id":"TWC1487","lat":54.833333333332995,"lng":-132.33333333332993},{"state":"AK","name":"Saltery Cove, Skowl Arm","type":"S","id":"9450495","lat":55.4017,"lng":-132.328},{"state":"AK","name":"Hunter Bay","type":"S","id":"9450139","lat":54.8717,"lng":-132.322},{"state":"AK","name":"Minnie Bay","type":"S","id":"9450041","lat":54.7267,"lng":-132.302},{"state":"AK","name":"Divide Head, Cholmondeley Sound","type":"S","id":"9450399","lat":55.2517,"lng":-132.3},{"state":"AK","name":"Village Rock, Zimovia Strait","type":"R","id":"9451037","lat":56.22,"lng":-132.297},{"state":"AK","name":"Magnetic Point, Union Bay, Earnest Sound","type":"R","id":"9450753","lat":55.78828333333333,"lng":-132.1908833333334},{"state":"AK","name":"Madan Bay","type":"R","id":"9451152","lat":56.3922,"lng":-132.169},{"state":"AK","name":"Niblack Anchorage, Moira Sound","type":"S","id":"9450271","lat":55.0667,"lng":-132.12},{"state":"AK","name":"Lancaster Cove, Cholmondeley Sound","type":"S","id":"9450373","lat":55.2133,"lng":-132.095},{"state":"AK","name":"Thoms Point, Zimovia Strait","type":"R","id":"9450970","lat":56.1183,"lng":-132.078},{"state":"AK","name":"Menefee Anch., Prince of Wales Island","type":"S","id":"9450244","lat":55.0267,"lng":-132.013},{"state":"AK","name":"Ingraham Bay, Prince of Wales Island","type":"S","id":"9450212","lat":54.98,"lng":-132.007},{"state":"AK","name":"Vallenar Point","type":"S","id":"9450511","lat":55.4267,"lng":-131.847},{"state":"AK","name":"Nehenta Bay, Gravina Island","type":"S","id":"9450339","lat":55.1667,"lng":-131.797},{"state":"AK","name":"Yes Cannery, Yes Bay","type":"S","id":"9450836","lat":55.9133,"lng":-131.797},{"state":"AK","name":"Ward Cove","type":"S","id":"9450492","lat":55.3983,"lng":-131.727},{"state":"AK","name":"Loring, Naha Bay","type":"S","id":"9450624","lat":55.6017,"lng":-131.632},{"state":"AK","name":"KETCHIKAN","type":"R","id":"9450460","lat":55.33183,"lng":-131.6261944442325},{"state":"AK","name":"Bradfield Canal, Ernest Sound","type":"R","id":"9451012","lat":56.1833,"lng":-131.572},{"state":"AK","name":"Metlakatla, Port Chester","type":"R","id":"9450314","lat":55.1283,"lng":-131.567},{"state":"AK","name":"Tamgas Harbor, Annette Island","type":"S","id":"9450273","lat":55.0667,"lng":-131.542},{"state":"AK","name":"Coon Island, George Inlet","type":"S","id":"9450533","lat":55.4617,"lng":-131.505},{"state":"AK","name":"Kelp Island Passage, Duke Island","type":"S","id":"9450142","lat":54.8767,"lng":-131.3},{"state":"AK","name":"Morse Cove, Duke Island","type":"S","id":"9450172","lat":54.92,"lng":-131.255},{"state":"AK","name":"Mop Point, Thorne Arm","type":"S","id":"9450483","lat":55.3833,"lng":-131.235},{"state":"AK","name":"Custom House Cove, Mary Island","type":"R","id":"9450296","lat":55.1,"lng":-131.217},{"state":"AK","name":"Fitzgibbon Cove","type":"S","id":"9450879","lat":55.9833,"lng":-131.175},{"state":"AK","name":"Alva Bay, Revillagigedo Island","type":"S","id":"9450382","lat":55.2283,"lng":-131.133},{"state":"AK","name":"Burrough Bay, Behm Canal","type":"R","id":"9450914","lat":56.0383,"lng":-131.095},{"state":"AK","name":"Kah Shakes Cove","type":"S","id":"9450254","lat":55.0417,"lng":-130.98},{"state":"AK","name":"Boca de Quadra","type":"S","id":"9450305","lat":55.1167,"lng":-130.798},{"state":"AK","name":"Nakat Harbor, Alaska","type":"S","id":"9450104","lat":54.82,"lng":-130.7},{"state":"AK","name":"Rudyerd Bay","type":"S","id":"9450651","lat":55.6417,"lng":-130.645},{"state":"","name":"Haystack Island, B.C.","type":"S","id":"8218362","lat":54.71666666666667,"lng":-130.6166666666667},{"state":"","name":"Wales Island (Cannery), Pearse Canal","type":"S","id":"8218447","lat":54.76666666666667,"lng":-130.55},{"state":"","name":"Kumeon Bay, B.C.","type":"S","id":"8218361","lat":54.71666666666667,"lng":-130.2166666666667},{"state":"AK","name":"Davis River entrance, Alaska","type":"S","id":"9450729","lat":55.76,"lng":-130.177},{"state":"","name":"Mill Bay, Nass River, B.C.","type":"S","id":"8218617","lat":55,"lng":-129.9},{"state":"","name":"Stewart, B.C.","type":"S","id":"8219894","lat":55.91666666666666,"lng":-129.8},{"state":"WA","name":"Tatoosh Island, Cape Flattery","type":"S","id":"9442971","lat":48.391700744628906,"lng":-124.73699951171875},{"state":"","name":"Tskawahyah Island, Cape Alava","type":"R","id":"9442705","lat":48.17110061645508,"lng":-124.73690032958984},{"state":"WA","name":"Makah Bay","type":"S","id":"9442861","lat":48.2967,"lng":-124.672},{"state":"WA","name":"James Island","type":"S","id":"9442388","lat":47.9067,"lng":-124.647},{"state":"WA","name":"La Push, Quillayute River","type":"R","id":"9442396","lat":47.91333333333333,"lng":-124.6369444444444},{"state":"WA","name":"NEAH BAY","type":"R","id":"9443090","lat":48.3702778,"lng":-124.6019444},{"state":"OR","name":"Port Orford","type":"R","id":"9431647","lat":42.73899841308594,"lng":-124.49829864501953},{"state":"","name":"Destruction Island","type":"S","id":"TWC0965","lat":47.666666666667005,"lng":-124.48333333333005},{"state":"OR","name":"Gold Beach, Rogue River","type":"R","id":"9431011","lat":42.42163888888889,"lng":-124.4187222222222},{"state":"","name":"Wedderburn, Rogue River","type":"S","id":"TWC0817","lat":42.43333333333299,"lng":-124.41666666666995},{"state":"","name":"Bandon, Coquille River","type":"S","id":"9432373","lat":43.12,"lng":-124.413},{"state":"OR","name":"CHARLESTON","type":"R","id":"9432780","lat":43.345,"lng":-124.322},{"state":"OR","name":"Sitka Dock, Coos Bay","type":"S","id":"9432879","lat":43.3767,"lng":-124.297},{"state":"WA","name":"Sekiu, Clallam Bay","type":"R","id":"9443361","lat":48.2633,"lng":-124.297},{"state":"","name":"Brookings, Chetco Cove","type":"S","id":"9430104","lat":42.0433,"lng":-124.285},{"state":"","name":"Cockrobin Island Bridge, Eel River","type":"R","id":"9418637","lat":40.63719940185547,"lng":-124.2822036743164},{"state":"","name":"Empire","type":"S","id":"9432864","lat":43.3917,"lng":-124.28},{"state":"WA","name":"Point Grenville","type":"S","id":"9441627","lat":47.3033,"lng":-124.27},{"state":"CA","name":"Hookton Slough","type":"S","id":"9418686","lat":40.6867,"lng":-124.222},{"state":"CA","name":"Fields Landing","type":"R","id":"9418723","lat":40.7233,"lng":-124.222},{"state":"CA","name":"HUMBOLDT BAY (North Spit)","type":"R","id":"9418767","lat":40.7663,"lng":-124.2172},{"state":"","name":"Coos Bay","type":"S","id":"9432845","lat":43.38,"lng":-124.215},{"state":"CA","name":"Pyramid Point, Smith River","type":"R","id":"9419945","lat":41.94525,"lng":-124.2009166666667},{"state":"CA","name":"Bucksport","type":"S","id":"9418778","lat":40.7783,"lng":-124.197},{"state":"CA","name":"Elk River Railroad Bridge","type":"S","id":"9418757","lat":40.7567,"lng":-124.193},{"state":"OR","name":"Umpqua River Entrance, Half Moon Bay","type":"R","id":"9433445","lat":43.675,"lng":-124.192},{"state":"CA","name":"CRESCENT CITY","type":"R","id":"9419750","lat":41.745,"lng":-124.183},{"state":"","name":"Rink Creek Entrance, Coquille River","type":"R","id":"9432436","lat":43.157901763916016,"lng":-124.18180084228516},{"state":"CA","name":"Samoa","type":"R","id":"9418817","lat":40.8267,"lng":-124.18},{"state":"CA","name":"Eureka","type":"S","id":"9418801","lat":40.8067,"lng":-124.167},{"state":"CA","name":"Mad River Slough, Arcata Bay","type":"S","id":"9418865","lat":40.865,"lng":-124.148},{"state":"CA","name":"Trinidad Harbor","type":"S","id":"9419059","lat":41.0567,"lng":-124.147},{"state":"CA","name":"Eureka Slough Bridge","type":"S","id":"9418802","lat":40.8067,"lng":-124.142},{"state":"","name":"Suislaw River Entrance","type":"S","id":"9434132","lat":44.0167,"lng":-124.13},{"state":"WA","name":"Point Brown","type":"S","id":"9441156","lat":46.95,"lng":-124.128},{"state":"OR","name":"Florence USCG Pier","type":"R","id":"9434098","lat":44.00211111111111,"lng":-124.123},{"state":"CA","name":"Arcata Wharf","type":"S","id":"9418851","lat":40.85,"lng":-124.117},{"state":"","name":"Gardiner","type":"S","id":"TWC0831","lat":43.73333333333299,"lng":-124.11666666666996},{"state":"WA","name":"Westport, Point Chehalis","type":"R","id":"9441102","lat":46.90431,"lng":-124.1050833331214},{"state":"","name":"Florence","type":"S","id":"9434032","lat":43.9667,"lng":-124.103},{"state":"","name":"Reedsport","type":"R","id":"9433501","lat":43.70830154418945,"lng":-124.0979995727539},{"state":"WA","name":"Columbia River entrance (N. Jetty)","type":"S","id":"9440574","lat":46.2733,"lng":-124.072},{"state":"","name":"Jim Creek","type":"R","id":"9443551","lat":48.187198638916016,"lng":-124.0625},{"state":"WA","name":"Bay City, South Bay","type":"S","id":"9441038","lat":46.8617,"lng":-124.06},{"state":"","name":"Waldport, Alsea Bay","type":"R","id":"9434939","lat":44.43436111111111,"lng":-124.0580833333333},{"state":"OR","name":"Depoe Bay","type":"R","id":"9435827","lat":44.81,"lng":-124.058},{"state":"CA","name":"Shelter Cove","type":"R","id":"9418024","lat":40.025001525878906,"lng":-124.05799865722656},{"state":"","name":"YAQUINA USCG STA, NEWPORT","type":"S","id":"9435385","lat":44.6267,"lng":-124.055},{"state":"WA","name":"Cape Disappointment","type":"R","id":"9440581","lat":46.28102777777778,"lng":-124.0462777777778},{"state":"","name":"Cushman, Suislaw River","type":"R","id":"9434068","lat":43.98500061035156,"lng":-124.04499816894531},{"state":"OR","name":"Southbeach","type":"R","id":"9435380","lat":44.625,"lng":-124.043},{"state":"WA","name":"Ilwaco, Baker Bay, Wash.","type":"S","id":"9440597","lat":46.3033,"lng":-124.04},{"state":"WA","name":"Fort Canby, Jetty 'A', Wash.","type":"S","id":"9440572","lat":46.2683,"lng":-124.037},{"state":"WA","name":"Nahcotta","type":"S","id":"9440747","lat":46.5017,"lng":-124.023},{"state":"","name":"Taft, Siletz Bay","type":"S","id":"9436101","lat":44.9267,"lng":-124.013},{"state":"OR","name":"Weiser Point, Yaquina River","type":"R","id":"9435308","lat":44.5933,"lng":-124.008},{"state":"OR","name":"Cascade Head, Salmon River","type":"R","id":"9436381","lat":45.04794444444445,"lng":-124.0073055555556},{"state":"","name":"Tarlatt Slough","type":"S","id":"TWC0933","lat":46.37,"lng":-124.005},{"state":"","name":"Kernville, Siletz River","type":"S","id":"9436031","lat":44.8967,"lng":-124},{"state":"WA","name":"Markham","type":"S","id":"9441098","lat":46.9067,"lng":-123.998},{"state":"","name":"Drift Creek, Alsea River","type":"S","id":"9434938","lat":44.4133,"lng":-123.99},{"state":"WA","name":"TOKE POINT","type":"R","id":"9440910","lat":46.70747,"lng":-123.96691666666004},{"state":"","name":"Nestucca Bay entrance","type":"S","id":"TWC0857","lat":45.166666666667005,"lng":-123.96666666666995},{"state":"","name":"North Jetty, Tillamook Bay","type":"R","id":"9437585","lat":45.56999969482422,"lng":-123.96499633789062},{"state":"","name":"Chinook Bend, Siletz River","type":"R","id":"9435992","lat":44.880001068115234,"lng":-123.9636001586914},{"state":"","name":"Greenhead Slough","type":"R","id":"9440650","lat":46.37220001220703,"lng":-123.95030212402344},{"state":"","name":"Point Adams, Oreg.","type":"S","id":"TWC0881","lat":46.2,"lng":-123.95},{"state":"WA","name":"Twin Rivers","type":"S","id":"9443644","lat":48.17499923706055,"lng":-123.94999694824219},{"state":"WA","name":"Chinook, Baker Bay, Wash.","type":"S","id":"9440573","lat":46.2717,"lng":-123.948},{"state":"OR","name":"Netarts, Netarts Bay","type":"S","id":"9437262","lat":45.43,"lng":-123.945},{"state":"OR","name":"Hammond, Oregon","type":"R","id":"9439011","lat":46.2017,"lng":-123.945},{"state":"WA","name":"Paradise Point, Long Island","type":"S","id":"9440723","lat":46.4683,"lng":-123.945},{"state":"WA","name":"Bay Center, Palix River","type":"S","id":"9440846","lat":46.6233,"lng":-123.945},{"state":"","name":"Barview","type":"S","id":"9437581","lat":45.5683,"lng":-123.943},{"state":"OR","name":"TOLEDO","type":"S","id":"9435362","lat":44.6167,"lng":-123.937},{"state":"","name":"Brighton","type":"S","id":"9437815","lat":45.67,"lng":-123.925},{"state":"OR","name":"Garibaldi","type":"R","id":"9437540","lat":45.55453,"lng":-123.91894444439146},{"state":"","name":"Warrenton, Skipanon River, Oreg.","type":"S","id":"TWC0883","lat":46.166666666667005,"lng":-123.91666666666995},{"state":"WA","name":"Palix River, south fork","type":"S","id":"9440813","lat":46.5867,"lng":-123.91},{"state":"WA","name":"Naselle River, swing bridge","type":"S","id":"9440691","lat":46.43,"lng":-123.903},{"state":"OR","name":"Dick Point","type":"R","id":"9437381","lat":45.4817,"lng":-123.902},{"state":"","name":"Miami Cove","type":"S","id":"TWC0863","lat":45.55,"lng":-123.9},{"state":"","name":"Bay City","type":"S","id":"TWC0865","lat":45.51666666666701,"lng":-123.9},{"state":"","name":"Nehalem","type":"S","id":"9437908","lat":45.71,"lng":-123.89},{"state":"","name":"North Fork, Nehalem River","type":"R","id":"9437954","lat":45.73379898071289,"lng":-123.87640380859375},{"state":"","name":"Astoria (Port Docks), Oreg.","type":"S","id":"9439023","lat":46.1867,"lng":-123.86},{"state":"WA","name":"ABERDEEN","type":"R","id":"9441187","lat":46.9683,"lng":-123.853},{"state":"WA","name":"Hungry Harbor, Wash.","type":"S","id":"9440563","lat":46.2583,"lng":-123.848},{"state":"","name":"Tillamook, Hoquarten Slough","type":"S","id":"9437331","lat":45.46,"lng":-123.845},{"state":"OR","name":"Astoria (Youngs Bay), Oreg.","type":"S","id":"9439026","lat":46.1717,"lng":-123.842},{"state":"WA","name":"Naselle River, 4 miles above swing bridge","type":"S","id":"9440662","lat":46.3883,"lng":-123.84},{"state":"","name":"Mailboat Slough, Willapa River","type":"S","id":"TWC0940","lat":46.68833333333299,"lng":-123.81666666666995},{"state":"CA","name":"NOYO HARBOR","type":"R","id":"9417426","lat":39.42577777777778,"lng":-123.8051111111111},{"state":"OR","name":"Cathcart Landing, Youngs River","type":"R","id":"9438772","lat":46.12425,"lng":-123.8043333333333},{"state":"","name":"Mendocino, Mendocino Bay","type":"S","id":"TWC0777","lat":39.3,"lng":-123.8},{"state":"WA","name":"South Bend, Willapa River","type":"R","id":"9440875","lat":46.6633,"lng":-123.798},{"state":"CA","name":"Westport","type":"S","id":"9417624","lat":39.6333,"lng":-123.783},{"state":"WA","name":"Cosmopolis, Chehalis River","type":"S","id":"9441158","lat":46.9667,"lng":-123.778},{"state":"OR","name":"ASTORIA (Tongue Point), Oreg.","type":"R","id":"9439040","lat":46.20731,"lng":-123.76830555558205},{"state":"WA","name":"Raymond, Willapa River","type":"S","id":"9440886","lat":46.6833,"lng":-123.755},{"state":"","name":"Point Arena","type":"S","id":"TWC0771","lat":38.95,"lng":-123.73333333333005},{"state":"WA","name":"Crescent Bay","type":"S","id":"9443826","lat":48.1617,"lng":-123.725},{"state":"CA","name":"ARENA COVE","type":"R","id":"9416841","lat":38.91455555555556,"lng":-123.7110833333333},{"state":"","name":"Settlers Point, Oreg.","type":"S","id":"9439054","lat":46.175,"lng":-123.678},{"state":"","name":"Harrington Point, Wash.","type":"S","id":"TWC0895","lat":46.26666666666701,"lng":-123.65},{"state":"","name":"Montesano, Chehalis River","type":"S","id":"TWC0959","lat":46.96833333333299,"lng":-123.6},{"state":"","name":"Knappa, Knappa Slough","type":"S","id":"9439069","lat":46.1867,"lng":-123.588},{"state":"WA","name":"Skamokawa","type":"R","id":"9440569","lat":46.2667,"lng":-123.452},{"state":"CA","name":"Green Cove","type":"R","id":"9416409","lat":38.70433333333333,"lng":-123.4493888888889},{"state":"WA","name":"Port Angeles","type":"R","id":"9444090","lat":48.125,"lng":-123.44000244140625},{"state":"WA","name":"Ediz Hook, Port Angeles","type":"S","id":"9444122","lat":48.14,"lng":-123.413},{"state":"OR","name":"Wauna","type":"R","id":"9439099","lat":46.16166687011719,"lng":-123.40888977050781},{"state":"WA","name":"Cape Horn","type":"R","id":"9440482","lat":46.15169906616211,"lng":-123.29000091552734},{"state":"CA","name":"Fort Ross","type":"S","id":"9416024","lat":38.5133,"lng":-123.245},{"state":"WA","name":"Hanbury Point, Mosquito Pass, San Juan I.","type":"R","id":"9449828","lat":48.5817,"lng":-123.17},{"state":"WA","name":"Roche Harbor, San Juan Island","type":"S","id":"9449834","lat":48.61,"lng":-123.155},{"state":"WA","name":"Dungeness","type":"S","id":"9444471","lat":48.1667,"lng":-123.117},{"state":"WA","name":"Union","type":"R","id":"9445478","lat":47.3583,"lng":-123.098},{"state":"","name":"POINT ROBERTS, PUGET SOUND","type":"R","id":"9449639","lat":48.974998474121094,"lng":-123.08300018310547},{"state":"WA","name":"Kanaka Bay, San Juan Island","type":"R","id":"9449856","lat":48.48500061035156,"lng":-123.08300018310547},{"state":"WA","name":"Shelton, Oakland Bay","type":"S","id":"9446628","lat":47.215,"lng":-123.083},{"state":"CA","name":"Bodega Harbor entrance","type":"S","id":"9415625","lat":38.3083,"lng":-123.055},{"state":"WA","name":"Ayock Point","type":"S","id":"9445388","lat":47.5083,"lng":-123.052},{"state":"WA","name":"Sequim Bay entrance","type":"S","id":"9444555","lat":48.0817,"lng":-123.043},{"state":"","name":"Barlow Point","type":"R","id":"9440483","lat":46.152198791503906,"lng":-123.03919982910156},{"state":"","name":"WALDRON ISLAND, PUGET SOUND","type":"R","id":"9449746","lat":48.686798095703125,"lng":-123.03759765625},{"state":"WA","name":"Friday Harbor, San Juan Island","type":"R","id":"9449880","lat":48.54669952392578,"lng":-123.01000213623047},{"state":"WA","name":"Barron Point, Little Snookum Inlet Entrance","type":"S","id":"9446742","lat":47.1567,"lng":-123.008},{"state":"","name":"Rocky Point, Eld Inlet","type":"S","id":"TWC1115","lat":47.081666666667005,"lng":-123.005},{"state":"CA","name":"Southeast Farallon Island","type":"S","id":"9414262","lat":37.7,"lng":-123},{"state":"WA","name":"Triton Head","type":"S","id":"9445326","lat":47.6033,"lng":-122.982},{"state":"CA","name":"Tomales Bay entrance","type":"S","id":"9415469","lat":38.2283,"lng":-122.977},{"state":"CA","name":"Point Reyes","type":"R","id":"9415020","lat":37.99611282348633,"lng":-122.97666931152344},{"state":"WA","name":"Patos Island Wharf","type":"S","id":"9449704","lat":48.7867,"lng":-122.97},{"state":"WA","name":"Longview","type":"R","id":"9440422","lat":46.10613888888889,"lng":-122.9541944444444},{"state":"WA","name":"Orcas, Orcas Island","type":"S","id":"9449798","lat":48.6,"lng":-122.95},{"state":"WA","name":"Arcadia, Totten Inlet","type":"S","id":"9446666","lat":47.1967,"lng":-122.938},{"state":"WA","name":"Shaw Island, Ferry Terminal, Harney Channel","type":"S","id":"9449904","lat":48.585,"lng":-122.928},{"state":"WA","name":"Walkers Landing, Pickering Passage","type":"S","id":"9446489","lat":47.2817,"lng":-122.923},{"state":"CA","name":"Blakes Landing, Tomales Bay","type":"S","id":"9415396","lat":38.19,"lng":-122.917},{"state":"WA","name":"Gardiner, Discovery Bay","type":"S","id":"9444705","lat":48.0583,"lng":-122.917},{"state":"WA","name":"Pleasant Harbor","type":"S","id":"9445293","lat":47.665,"lng":-122.912},{"state":"WA","name":"Dofflemeyer Point, Boston Hbr., Budd Inlet","type":"S","id":"9446800","lat":47.1417,"lng":-122.903},{"state":"WA","name":"Olympia, Budd Inlet","type":"S","id":"9446969","lat":47.06,"lng":-122.903},{"state":"WA","name":"Lynch Cove Dock","type":"S","id":"9445441","lat":47.4183,"lng":-122.9},{"state":"WA","name":"Richardson, Lopez Island","type":"R","id":"9449982","lat":48.4467,"lng":-122.9},{"state":"WA","name":"Echo Bay, Sucia Islands","type":"S","id":"9449712","lat":48.7567,"lng":-122.897},{"state":"WA","name":"Budd Inlet, Olympia Shoal","type":"R","id":"9446807","lat":47.0983,"lng":-122.895},{"state":"CA","name":"Marshall, Tomales Bay","type":"S","id":"9415339","lat":38.1617,"lng":-122.893},{"state":"WA","name":"Upright Head, Lopez Island","type":"R","id":"9449911","lat":48.57170104980469,"lng":-122.88500213623047},{"state":"CA","name":"Reynolds, Tomales Bay","type":"S","id":"9415320","lat":38.1467,"lng":-122.883},{"state":"WA","name":"Rosario, East Sound, Orcas Island","type":"R","id":"9449771","lat":48.64670181274414,"lng":-122.87000274658203},{"state":"CA","name":"Inverness, Tomales Bay","type":"S","id":"9415228","lat":38.1133,"lng":-122.868},{"state":"","name":"Rocky Point","type":"R","id":"9439189","lat":45.6967,"lng":-122.868},{"state":"WA","name":"McMicken Island, Case Inlet","type":"S","id":"9446583","lat":47.2467,"lng":-122.862},{"state":"WA","name":"Quilcene, Quilcene Bay, Dabob Bay","type":"S","id":"9445272","lat":47.8,"lng":-122.858},{"state":"WA","name":"Aleck Bay, Lopez Island","type":"S","id":"9449994","lat":48.425,"lng":-122.853},{"state":"WA","name":"Whitney Point, Dabob Bay","type":"S","id":"9445246","lat":47.7617,"lng":-122.85},{"state":"WA","name":"Henderson Inlet","type":"S","id":"9446752","lat":47.155,"lng":-122.838},{"state":"WA","name":"Smith Island","type":"S","id":"9447985","lat":48.3167,"lng":-122.837},{"state":"","name":"Temco Kalama Terminal","type":"R","id":"9440357","lat":45.986698150634766,"lng":-122.83670043945312},{"state":"WA","name":"Seabeck, Seabeck Bay","type":"S","id":"9445303","lat":47.6417,"lng":-122.828},{"state":"WA","name":"Allyn, Case Inlet","type":"S","id":"9446281","lat":47.3833,"lng":-122.823},{"state":"WA","name":"Zelatched Point, Dabob Bay","type":"S","id":"9445269","lat":47.7117,"lng":-122.822},{"state":"WA","name":"TELEGRAPH BAY, PUGET SOUND","type":"R","id":"9449988","lat":48.44329833984375,"lng":-122.80500030517578},{"state":"","name":"Peavine Pass","type":"S","id":"TWC1165","lat":48.6,"lng":-122.8},{"state":"WA","name":"Armitage Island, Thatcher Pass","type":"R","id":"9449932","lat":48.535,"lng":-122.797},{"state":"OR","name":"Saint Helens","type":"R","id":"9439201","lat":45.86330555555556,"lng":-122.7961944444444},{"state":"WA","name":"Vaughn, Case Inlet","type":"S","id":"9446366","lat":47.3417,"lng":-122.775},{"state":"WA","name":"Point Partridge, Whidbey Island","type":"S","id":"9447934","lat":48.2317,"lng":-122.765},{"state":"WA","name":"Blaine, Semiahmoo Bay","type":"R","id":"9449679","lat":48.9917,"lng":-122.765},{"state":"WA","name":"Devils Head, Drayton Passage","type":"S","id":"9446671","lat":47.1667,"lng":-122.763},{"state":"WA","name":"PORT TOWNSEND","type":"R","id":"9444900","lat":48.1129,"lng":-122.7595},{"state":"WA","name":"Home, Von Geldern Cove, Carr Inlet","type":"S","id":"9446500","lat":47.275,"lng":-122.758},{"state":"WA","name":"CHERRY POINT","type":"R","id":"9449424","lat":48.8633,"lng":-122.758},{"state":"WA","name":"Knapp Landing, Willow Bar","type":"R","id":"9440171","lat":45.74169921875,"lng":-122.75499725341797},{"state":"WA","name":"Longbranch, Filucy Bay","type":"S","id":"9446638","lat":47.21,"lng":-122.753},{"state":"WA","name":"Tide Point, Cypress Island","type":"S","id":"9448918","lat":48.5867,"lng":-122.748},{"state":"WA","name":"Sunset Beach, Whidbey Island","type":"S","id":"9447951","lat":48.2833,"lng":-122.728},{"state":"WA","name":"Bangor Wharf","type":"R","id":"9445133","lat":47.7483,"lng":-122.727},{"state":"WA","name":"Strawberry Bay, Cypress Island","type":"S","id":"9448876","lat":48.565,"lng":-122.722},{"state":"","name":"Point Migley","type":"S","id":"TWC1173","lat":48.75,"lng":-122.71666666666995},{"state":"","name":"Ferndale","type":"S","id":"TWC1189","lat":48.833333333332995,"lng":-122.71666666666995},{"state":"WA","name":"Village Point, Lummi Island","type":"R","id":"9449161","lat":48.7167,"lng":-122.708},{"state":"WA","name":"Sandy Point, Lummi Bay","type":"S","id":"9449292","lat":48.79,"lng":-122.708},{"state":"WA","name":"Vancouver","type":"R","id":"9440083","lat":45.63169444444444,"lng":-122.697},{"state":"WA","name":"Burrows Bay (Allan Island)","type":"S","id":"9448683","lat":48.46,"lng":-122.695},{"state":"WA","name":"Mystery Bay, Marrowstone Island","type":"S","id":"9444971","lat":48.0583,"lng":-122.692},{"state":"WA","name":"Marrowstone Point","type":"S","id":"9444972","lat":48.0917,"lng":-122.69},{"state":"WA","name":"Coupeville, Penn Cove, Whidbey Island","type":"S","id":"9447929","lat":48.2233,"lng":-122.69},{"state":"","name":"NAS Whidbey Island","type":"R","id":"9447973","lat":48.34280014038086,"lng":-122.68579864501953},{"state":"WA","name":"Horsehead Bay, Carr Inlet","type":"S","id":"9446451","lat":47.3017,"lng":-122.682},{"state":"WA","name":"Port Ludlow","type":"S","id":"9445017","lat":47.925,"lng":-122.68},{"state":"CA","name":"Bolinas Lagoon","type":"R","id":"9414958","lat":37.907779693603516,"lng":-122.6786117553711},{"state":"WA","name":"Ship Harbor, Fidalgo Island","type":"S","id":"9448772","lat":48.5067,"lng":-122.677},{"state":"","name":"SANDY POINT ANDERSON ISLAND, PUGET SOUND","type":"R","id":"9446804","lat":47.15299987792969,"lng":-122.67510223388672},{"state":"WA","name":"Yoman Point, Anderson Island, Balch Passage","type":"R","id":"9446705","lat":47.18,"lng":-122.675},{"state":"OR","name":"Portland Morrison Street Bridge","type":"R","id":"9439221","lat":45.51,"lng":-122.673},{"state":"WA","name":"Gooseberry Point","type":"S","id":"9449184","lat":48.73,"lng":-122.67},{"state":"WA","name":"Admiralty Head","type":"S","id":"9447905","lat":48.1583,"lng":-122.668},{"state":"WA","name":"Dupont Wharf, Nisqually Reach","type":"S","id":"9446828","lat":47.1183,"lng":-122.665},{"state":"WA","name":"Tracyton, Dyes Inlet","type":"S","id":"9445901","lat":47.61,"lng":-122.66},{"state":"WA","name":"Lofall","type":"S","id":"9445088","lat":47.815,"lng":-122.657},{"state":"WA","name":"Deception Pass St. Park, Bowman Bay, Fidalgo I.","type":"R","id":"9448614","lat":48.415000915527344,"lng":-122.6520004272461},{"state":"WA","name":"Arletta, Hale Passage","type":"S","id":"9446491","lat":47.28,"lng":-122.652},{"state":"WA","name":"Poulsbo, Liberty Bay","type":"S","id":"9445719","lat":47.725,"lng":-122.638},{"state":"WA","name":"Wauna, Carr Inlet","type":"R","id":"9446291","lat":47.378299713134766,"lng":-122.63400268554688},{"state":"","name":"San Francisco Bar","type":"S","id":"TWC0509","lat":37.76666666666701,"lng":-122.63333333333004},{"state":"WA","name":"Bremerton, Sinclair Inlet, Port Orchard","type":"R","id":"9445958","lat":47.56169891357422,"lng":-122.62300109863281},{"state":"WA","name":"Cornet Bay, Deception Pass","type":"S","id":"9447995","lat":48.4017,"lng":-122.623},{"state":"WA","name":"Anacortes, Guemes Channel","type":"S","id":"9448794","lat":48.5183,"lng":-122.62},{"state":"WA","name":"Foulweather Bluff","type":"R","id":"9445016","lat":47.9267,"lng":-122.617},{"state":"WA","name":"Crescent Harbor, N. Whidbey Island","type":"S","id":"9447952","lat":48.2867,"lng":-122.617},{"state":"WA","name":"Brownsville, Port Orchard","type":"S","id":"9445832","lat":47.6517,"lng":-122.615},{"state":"WA","name":"Yokeko Point, Deception Pass","type":"S","id":"9448601","lat":48.4133,"lng":-122.615},{"state":"CA","name":"Upper drawbridge, Petaluma River","type":"S","id":"9415584","lat":38.2283,"lng":-122.613},{"state":"WA","name":"Bush Point, Whidbey Island","type":"S","id":"9447854","lat":48.0333,"lng":-122.607},{"state":"WA","name":"Steilacoom, Cormorant Passage","type":"S","id":"9446714","lat":47.1733,"lng":-122.603},{"state":"WA","name":"Gig Harbor","type":"S","id":"9446369","lat":47.34,"lng":-122.588},{"state":"WA","name":"Ala Spit, Whidbey Island","type":"S","id":"9447993","lat":48.3967,"lng":-122.587},{"state":"WA","name":"Port Gamble","type":"S","id":"9445059","lat":47.8583,"lng":-122.58},{"state":"WA","name":"Greenbank, Whidbey Island","type":"R","id":"9447883","lat":48.105,"lng":-122.57},{"state":"","name":"Lakeville, Petaluma River","type":"S","id":"TWC0649","lat":38.2,"lng":-122.56666666666995},{"state":"WA","name":"Turner Bay, Similk Bay","type":"R","id":"9448657","lat":48.445,"lng":-122.555},{"state":"WA","name":"Tacoma Narrows Bridge","type":"S","id":"9446486","lat":47.2717,"lng":-122.552},{"state":"CA","name":"Hog Island, San Antonio Creek","type":"S","id":"9415344","lat":38.1617,"lng":-122.55},{"state":"WA","name":"Sneeoosh Point","type":"R","id":"9448576","lat":48.4,"lng":-122.548},{"state":"WA","name":"Hansville","type":"S","id":"9445526","lat":47.9183,"lng":-122.545},{"state":"WA","name":"Clam Bay, Rich Passage","type":"S","id":"9445938","lat":47.5733,"lng":-122.543},{"state":"WA","name":"Holly Farms Harbor, Holmes Harbor, Whidbey I.","type":"S","id":"9447855","lat":48.0267,"lng":-122.535},{"state":"CA","name":"Point Bonita, Bonita Cove","type":"S","id":"9414906","lat":37.8183,"lng":-122.528},{"state":"WA","name":"Port Madison","type":"S","id":"9445753","lat":47.705,"lng":-122.525},{"state":"WA","name":"Harper, Yukon Harbor","type":"S","id":"9445993","lat":47.5233,"lng":-122.517},{"state":"WA","name":"Eagle Harbor, Bainbridge Island","type":"S","id":"9445882","lat":47.62,"lng":-122.515},{"state":"CA","name":"Corte Madera Creek","type":"R","id":"9414874","lat":37.94329833984375,"lng":-122.51300048828125},{"state":"WA","name":"Swinomish Channel ent., Padilla Bay","type":"R","id":"9448682","lat":48.45830154418945,"lng":-122.51300048828125},{"state":"CA","name":"Ocean Beach, outer coast","type":"S","id":"9414275","lat":37.775,"lng":-122.513},{"state":"WA","name":"Port Blakely","type":"S","id":"9445913","lat":47.5967,"lng":-122.51},{"state":"WA","name":"Tahlequah, Neil Pt., Dalco Passage, Vashon I.","type":"S","id":"9446375","lat":47.3333,"lng":-122.507},{"state":"CA","name":"Petaluma River entrance","type":"S","id":"9415252","lat":38.11530555555556,"lng":-122.5056666666667},{"state":"CA","name":"Gallinas, Gallinas Creek","type":"S","id":"9415052","lat":38.015,"lng":-122.503},{"state":"","name":"Chuckanut Bay","type":"S","id":"TWC1169","lat":48.666666666667005,"lng":-122.5},{"state":"WA","name":"La Conner, Swinomish Channel","type":"S","id":"9448558","lat":48.3917,"lng":-122.497},{"state":"WA","name":"Bellingham","type":"S","id":"9449211","lat":48.745,"lng":-122.495},{"state":"CA","name":"Sausalito, Corps of Engineers Dock","type":"S","id":"9414819","lat":37.865,"lng":-122.493},{"state":"WA","name":"Kingston, Appletree Cove","type":"S","id":"9445639","lat":47.7967,"lng":-122.493},{"state":"CA","name":"Pillar Point Harbor, Half Moon Bay","type":"R","id":"9414131","lat":37.5025,"lng":-122.4821666666667},{"state":"CA","name":"Sausalito","type":"S","id":"9414806","lat":37.8467,"lng":-122.477},{"state":"WA","name":"Port Jefferson","type":"S","id":"9445683","lat":47.7467,"lng":-122.477},{"state":"CA","name":"Point San Quentin","type":"S","id":"9414873","lat":37.945,"lng":-122.475},{"state":"CA","name":"SAN FRANCISCO (Golden Gate)","type":"R","id":"9414290","lat":37.80630555555555,"lng":-122.4658888888889},{"state":"WA","name":"Point Vashon, Vashon Island","type":"S","id":"9446025","lat":47.5117,"lng":-122.463},{"state":"WA","name":"Burton, Quartermaster Hbr. (inside), Vashon I.","type":"S","id":"9446254","lat":47.395,"lng":-122.463},{"state":"CA","name":"Point San Pedro","type":"S","id":"9415009","lat":37.9933,"lng":-122.447},{"state":"CA","name":"Angel Island (west side)","type":"S","id":"9414817","lat":37.86,"lng":-122.443},{"state":"CA","name":"Point Chauncey","type":"S","id":"9414837","lat":37.8917,"lng":-122.443},{"state":"CA","name":"Wingo, Sonoma Creek","type":"S","id":"9415447","lat":38.21,"lng":-122.427},{"state":"CA","name":"Point Orient","type":"S","id":"9414881","lat":37.9583,"lng":-122.425},{"state":"CA","name":"Angel Island, East Garrison","type":"S","id":"9414818","lat":37.8633,"lng":-122.42},{"state":"CA","name":"Alcatraz Island","type":"S","id":"9414792","lat":37.8267,"lng":-122.417},{"state":"WA","name":"Tacoma, Commencement Bay, Sitcum Waterway","type":"R","id":"9446484","lat":47.26667,"lng":-122.41333333333333},{"state":"CA","name":"San Francisco, North Point, Pier 41","type":"S","id":"9414305","lat":37.81,"lng":-122.413},{"state":"CA","name":"Chevron Oil Company Pier, Richmond","type":"R","id":"9414863","lat":37.923,"lng":-122.4095833333333},{"state":"CA","name":"Sonoma Creek","type":"R","id":"9415338","lat":38.1567,"lng":-122.407},{"state":"WA","name":"Meadow Point, Shilshole Bay","type":"S","id":"9447265","lat":47.6883,"lng":-122.403},{"state":"CA","name":"South San Francisco","type":"S","id":"9414391","lat":37.6667,"lng":-122.39},{"state":"CA","name":"Rincon Point, Pier 22 1/2","type":"R","id":"9414317","lat":37.79,"lng":-122.387},{"state":"CA","name":"Potrero Point","type":"S","id":"9414334","lat":37.7583,"lng":-122.383},{"state":"CA","name":"Seaplane Harbor","type":"S","id":"9414413","lat":37.6367,"lng":-122.383},{"state":"WA","name":"Edmonds","type":"S","id":"9447427","lat":47.8133,"lng":-122.383},{"state":"WA","name":"Washougal","type":"R","id":"9440047","lat":45.57830047607422,"lng":-122.38200378417969},{"state":"CA","name":"Oyster Point Marina","type":"S","id":"9414392","lat":37.665,"lng":-122.377},{"state":"CA","name":"Point San Bruno","type":"S","id":"9414402","lat":37.65,"lng":-122.377},{"state":"WA","name":"Sandy Point, Whidbey Island","type":"S","id":"9447856","lat":48.035,"lng":-122.377},{"state":"WA","name":"Kayak Point","type":"S","id":"9448094","lat":48.1367,"lng":-122.367},{"state":"","name":"Stanwood, Stillaguamish River","type":"S","id":"TWC1131","lat":48.21666666666667,"lng":-122.3666666666667},{"state":"CA","name":"Pinole Point","type":"R","id":"9415056","lat":38.015,"lng":-122.363},{"state":"WA","name":"Lockheed Shipyard, Harbor Island","type":"S","id":"9447110","lat":47.585,"lng":-122.362},{"state":"CA","name":"Yerba Buena Island","type":"S","id":"9414782","lat":37.81,"lng":-122.36},{"state":"CA","name":"Richmond Inner Harbor","type":"S","id":"9414849","lat":37.91,"lng":-122.358},{"state":"CA","name":"Hunters Point","type":"R","id":"9414358","lat":37.73,"lng":-122.357},{"state":"WA","name":"Glendale, Whidbey Island","type":"S","id":"9447814","lat":47.94,"lng":-122.357},{"state":"WA","name":"Tulare Beach, Port Susan","type":"R","id":"9448043","lat":48.10680555555555,"lng":-122.3472777777778},{"state":"WA","name":"SEATTLE (Madison St.), Elliott Bay","type":"R","id":"9447130","lat":47.60264,"lng":-122.3393055555556},{"state":"CA","name":"Ano Nuevo Island","type":"S","id":"9413878","lat":37.1083,"lng":-122.338},{"state":"CA","name":"Oakland Middle Harbor","type":"S","id":"9414777","lat":37.805,"lng":-122.338},{"state":"CA","name":"Oakland Pier","type":"S","id":"9414765","lat":37.795,"lng":-122.33},{"state":"WA","name":"Des Moines, East Passage","type":"S","id":"9446248","lat":47.4,"lng":-122.328},{"state":"CA","name":"Oakland, Matson Wharf","type":"S","id":"9414779","lat":37.81,"lng":-122.327},{"state":"WA","name":"Spee-Bi-Dah","type":"R","id":"9448009","lat":48.08825,"lng":-122.3223333333333},{"state":"WA","name":"Duwamish Waterway, Eighth Ave. South","type":"S","id":"9447029","lat":47.535,"lng":-122.322},{"state":"CA","name":"Point Isabel","type":"S","id":"9414843","lat":37.8983,"lng":-122.32},{"state":"CA","name":"Alameda Naval Air Station","type":"S","id":"9414767","lat":37.7933,"lng":-122.315},{"state":"CA","name":"Coyote Point Marina","type":"S","id":"9414449","lat":37.5917,"lng":-122.313},{"state":"CA","name":"Edgerley Island, Napa River","type":"S","id":"9415415","lat":38.1917,"lng":-122.312},{"state":"CA","name":"Brazos Drawbridge, Napa River","type":"S","id":"9415446","lat":38.21,"lng":-122.307},{"state":"CA","name":"Berkeley","type":"R","id":"9414816","lat":37.8650016784668,"lng":-122.30699920654297},{"state":"CA","name":"Alameda","type":"R","id":"9414750","lat":37.7717,"lng":-122.3},{"state":"CA","name":"Hercules, Refugio Landing","type":"S","id":"9415074","lat":38.0233,"lng":-122.292},{"state":"WA","name":"Tulalip","type":"R","id":"9447773","lat":48.065,"lng":-122.288},{"state":"CA","name":"Oakland Harbor, Grove Street","type":"S","id":"9414763","lat":37.795,"lng":-122.283},{"state":"CA","name":"Oakland Inner Harbor","type":"R","id":"9414764","lat":37.795,"lng":-122.282},{"state":"CA","name":"Napa, Napa River","type":"S","id":"9415623","lat":38.2983,"lng":-122.28},{"state":"CA","name":"Vallejo, Mare Island Strait","type":"S","id":"9415165","lat":38.1117,"lng":-122.273},{"state":"CA","name":"San Mateo Bridge (west end)","type":"R","id":"9414458","lat":37.58,"lng":-122.253},{"state":"CA","name":"Mare Island","type":"R","id":"9415218","lat":38.07,"lng":-122.25},{"state":"CA","name":"Bay Slough, west end","type":"S","id":"9414483","lat":37.5517,"lng":-122.243},{"state":"CA","name":"Selby","type":"S","id":"9415142","lat":38.0583,"lng":-122.243},{"state":"CA","name":"San Leandro Channel, San Leandro Bay","type":"S","id":"9414724","lat":37.7483,"lng":-122.235},{"state":"CA","name":"Oakland Harbor, Park Street Bridge","type":"R","id":"9414746","lat":37.7717,"lng":-122.235},{"state":"WA","name":"Priest Point","type":"R","id":"9447717","lat":48.03494444444444,"lng":-122.2271944444445},{"state":"CA","name":"Smith Slough","type":"S","id":"9414511","lat":37.5017,"lng":-122.223},{"state":"CA","name":"Crockett","type":"R","id":"9415143","lat":38.0583,"lng":-122.223},{"state":"WA","name":"Everett","type":"R","id":"9447659","lat":47.98,"lng":-122.223},{"state":"CA","name":"Bay Slough, east end","type":"S","id":"9414486","lat":37.545,"lng":-122.222},{"state":"CA","name":"Granite Rock, Redwood Creek","type":"S","id":"9414513","lat":37.495,"lng":-122.213},{"state":"","name":"Marysville, Quilceda Creek","type":"S","id":"TWC1125","lat":48.045,"lng":-122.21166666666996},{"state":"CA","name":"Corkscrew Slough","type":"S","id":"9414505","lat":37.5083,"lng":-122.21},{"state":"CA","name":"Redwood City, Wharf 5","type":"R","id":"9414523","lat":37.50669860839844,"lng":-122.20999908447266},{"state":"CA","name":"Oakland Airport","type":"S","id":"9414711","lat":37.7317,"lng":-122.208},{"state":"","name":"Roberts Landing, 1.3 miles west of","type":"S","id":"TWC0547","lat":37.666666666667005,"lng":-122.2},{"state":"CA","name":"Redwood Creek Marker 8","type":"S","id":"9414501","lat":37.5333,"lng":-122.193},{"state":"CA","name":"West Point Slough","type":"S","id":"9414507","lat":37.505,"lng":-122.192},{"state":"CA","name":"San Leandro Marina","type":"R","id":"9414688","lat":37.695,"lng":-122.192},{"state":"CA","name":"San Mateo Bridge (east end)","type":"S","id":"9414637","lat":37.6083,"lng":-122.182},{"state":"CA","name":"South Bay Wreck","type":"S","id":"9414609","lat":37.5517,"lng":-122.162},{"state":"CA","name":"Alameda Creek","type":"S","id":"9414632","lat":37.595,"lng":-122.145},{"state":"CA","name":"Benicia","type":"S","id":"9415111","lat":38.0433,"lng":-122.13},{"state":"CA","name":"Coyote Hills Slough entrance","type":"S","id":"9414621","lat":37.5633,"lng":-122.128},{"state":"CA","name":"Martinez-Amorco Pier","type":"R","id":"9415102","lat":38.03463888888889,"lng":-122.1251944444445},{"state":"CA","name":"Dumbarton Highway Bridge","type":"R","id":"9414509","lat":37.5067,"lng":-122.115},{"state":"CA","name":"Palo Alto Yacht Harbor","type":"S","id":"9414525","lat":37.4583,"lng":-122.105},{"state":"CA","name":"Pierce Harbor, Goodyear Slough","type":"S","id":"9415266","lat":38.1267,"lng":-122.1},{"state":"CA","name":"Newark Slough","type":"S","id":"9414506","lat":37.5133,"lng":-122.08},{"state":"CA","name":"Suisun Slough entrance","type":"R","id":"9415265","lat":38.1283,"lng":-122.073},{"state":"CA","name":"Calaveras Point, west of","type":"S","id":"9414539","lat":37.4667,"lng":-122.067},{"state":"CA","name":"Joice Island, Suisun Slough","type":"S","id":"9415379","lat":38.18,"lng":-122.045},{"state":"CA","name":"Mowry Slough","type":"S","id":"9414519","lat":37.4933,"lng":-122.042},{"state":"CA","name":"PORT CHICAGO, SUISUN BAY","type":"R","id":"9415144","lat":38.056,"lng":-122.0395},{"state":"CA","name":"Point Buckler","type":"S","id":"9415227","lat":38.1,"lng":-122.033},{"state":"CA","name":"Suisun City, Suisun Slough","type":"S","id":"9415498","lat":38.2367,"lng":-122.03},{"state":"CA","name":"Coyote Creek, Alviso Slough","type":"R","id":"9414575","lat":37.465,"lng":-122.023},{"state":"","name":"Beacon Rock State Park","type":"R","id":"9440079","lat":45.62030029296875,"lng":-122.02030181884766},{"state":"CA","name":"Santa Cruz, Monterey Bay","type":"S","id":"9413745","lat":36.9583,"lng":-122.017},{"state":"CA","name":"Upper Guadalupe Slough","type":"S","id":"9414549","lat":37.435,"lng":-122.007},{"state":"CA","name":"Montezuma Slough Bridge","type":"S","id":"9415402","lat":38.1867,"lng":-121.98},{"state":"CA","name":"Gold Street Bridge, Alviso Slough","type":"S","id":"9414551","lat":37.4233,"lng":-121.975},{"state":"CA","name":"Coyote Creek, Tributary no.1","type":"S","id":"9414561","lat":37.4467,"lng":-121.963},{"state":"CA","name":"Carmel Cove, Carmel Bay","type":"S","id":"9413375","lat":36.52,"lng":-121.94},{"state":"CA","name":"Bradmoor Island, Nurse Slough","type":"R","id":"9414811","lat":38.1833,"lng":-121.923},{"state":"CA","name":"Mallard Island Ferry Wharf","type":"R","id":"9415112","lat":38.0433,"lng":-121.918},{"state":"CA","name":"Meins Landing, Montezuma Slough","type":"S","id":"9415307","lat":38.1367,"lng":-121.907},{"state":"CA","name":"MONTEREY, MONTEREY BAY","type":"R","id":"9413450","lat":36.60499954223633,"lng":-121.88805389404297},{"state":"CA","name":"Montezuma Slough","type":"S","id":"9415205","lat":38.0767,"lng":-121.885},{"state":"CA","name":"Pittsburg, New York Slough","type":"S","id":"9415096","lat":38.0367,"lng":-121.88},{"state":"CA","name":"Collinsville","type":"S","id":"9415176","lat":38.0733,"lng":-121.848},{"state":"CA","name":"Antioch","type":"R","id":"9415064","lat":38.02,"lng":-121.815},{"state":"CA","name":"Moss Landing, Ocean Pier","type":"S","id":"9413616","lat":36.8017,"lng":-121.79},{"state":"CA","name":"General Fish Company Pier","type":"S","id":"9413617","lat":36.8017,"lng":-121.787},{"state":"CA","name":"Elkhorn Yacht Club","type":"S","id":"9413626","lat":36.8133,"lng":-121.787},{"state":"CA","name":"Elkhorn Slough, Highway 1 Bridge","type":"S","id":"9413623","lat":36.81,"lng":-121.785},{"state":"CA","name":"Pacific Mariculture Dock","type":"S","id":"9413624","lat":36.8133,"lng":-121.758},{"state":"CA","name":"Elkhorn Slough railroad bridge","type":"R","id":"9413663","lat":36.85667,"lng":-121.755},{"state":"CA","name":"Elkhorn, Elkhorn Slough","type":"R","id":"9413631","lat":36.81829833984375,"lng":-121.74700164794922},{"state":"CA","name":"Kirby Park, Elkhorn Slough","type":"R","id":"9413651","lat":36.84130096435547,"lng":-121.74530029296875},{"state":"","name":"Tidal Creek, Elkhorn Slough","type":"R","id":"9413643","lat":36.83330154418945,"lng":-121.74500274658203},{"state":"CA","name":"Threemile Slough","type":"S","id":"9415236","lat":38.1067,"lng":-121.7},{"state":"CA","name":"Rio Vista","type":"R","id":"9415316","lat":38.145,"lng":-121.692},{"state":"CA","name":"Threemile Slough entrance","type":"S","id":"9415193","lat":38.0867,"lng":-121.685},{"state":"CA","name":"False River","type":"S","id":"9415145","lat":38.055,"lng":-121.657},{"state":"CA","name":"Steamboat Slough, Snug Harbor Marina","type":"S","id":"9415414","lat":38.1833,"lng":-121.655},{"state":"CA","name":"Dutch Slough","type":"S","id":"9415053","lat":38.0117,"lng":-121.638},{"state":"CA","name":"Irish Landing, Sand Mound Slough","type":"S","id":"9415095","lat":38.0333,"lng":-121.583},{"state":"CA","name":"Georgiana Slough entrance","type":"S","id":"9415287","lat":38.125,"lng":-121.578},{"state":"CA","name":"Borden Highway Bridge, Old River","type":"S","id":"9414836","lat":37.8833,"lng":-121.577},{"state":"CA","name":"Orwood, Old River","type":"S","id":"9414868","lat":37.9383,"lng":-121.56},{"state":"CA","name":"Prisoners Point","type":"S","id":"9415149","lat":38.0617,"lng":-121.555},{"state":"CA","name":"Clarksburg","type":"S","id":"9415846","lat":38.4167,"lng":-121.523},{"state":"CA","name":"Sacramento","type":"S","id":"9416174","lat":38.58,"lng":-121.507},{"state":"CA","name":"Terminous, South Fork","type":"S","id":"9415257","lat":38.11,"lng":-121.498},{"state":"CA","name":"Wards Island, Little Connection Slough","type":"S","id":"9415105","lat":38.05002527777778,"lng":-121.4968555555556},{"state":"CA","name":"Snodgrass Slough","type":"S","id":"9415565","lat":38.2767,"lng":-121.495},{"state":"CA","name":"New Hope Bridge","type":"S","id":"9415478","lat":38.2267,"lng":-121.49},{"state":"CA","name":"Borden Highway Bridge, Middle River","type":"S","id":"9414835","lat":37.8917,"lng":-121.488},{"state":"CA","name":"Mansfield Cone","type":"R","id":"9412802","lat":35.94952777777777,"lng":-121.4819444444445},{"state":"CA","name":"Grant Line Canal (drawbridge)","type":"S","id":"9414785","lat":37.82,"lng":-121.447},{"state":"CA","name":"Holt, Whiskey Slough","type":"S","id":"9414866","lat":37.935,"lng":-121.435},{"state":"CA","name":"Bishop Cut, Disappointment Slough","type":"S","id":"9415117","lat":38.045,"lng":-121.42},{"state":"CA","name":"Blackslough Landing","type":"S","id":"9415021","lat":37.99469444444444,"lng":-121.4190444444444},{"state":"","name":"Borden Highway Bridge, San Joaquin River","type":"S","id":"9414367","lat":37.93666666666701,"lng":-121.33333333333005},{"state":"CA","name":"Stockton","type":"S","id":"9414883","lat":37.9583,"lng":-121.29},{"state":"CA","name":"San Simeon","type":"S","id":"9412553","lat":35.6417,"lng":-121.188},{"state":"CA","name":"PORT SAN LUIS","type":"R","id":"9412110","lat":35.16880555555556,"lng":-120.7541944444445},{"state":"CA","name":"Oil Platform Harvest","type":"R","id":"9411406","lat":34.46916666666667,"lng":-120.6819444444444},{"state":"","name":"Point Arguello","type":"S","id":"TWC0473","lat":34.583333333332995,"lng":-120.65},{"state":"CA","name":"Cuyler Harbor, San Miguel Island","type":"S","id":"9410988","lat":34.0567,"lng":-120.355},{"state":"CA","name":"Gaviota State Park, Pacific Ocean","type":"R","id":"9411399","lat":34.46938888888889,"lng":-120.2283055555556},{"state":"CA","name":"Bechers Bay, Santa Rosa Island","type":"S","id":"9410962","lat":34.0083,"lng":-120.047},{"state":"CA","name":"Santa Barbara","type":"R","id":"9411340","lat":34.40311111111111,"lng":-119.6928055555556},{"state":"CA","name":"Prisoners Harbor, Santa Cruz Island","type":"S","id":"9410971","lat":34.02,"lng":-119.683},{"state":"CA","name":"San Nicolas Island","type":"S","id":"9410068","lat":33.2667,"lng":-119.497},{"state":"CA","name":"Rincon Island, Mussel Shoals","type":"S","id":"9411270","lat":34.3483,"lng":-119.443},{"state":"CA","name":"Ventura","type":"S","id":"9411189","lat":34.2667,"lng":-119.283},{"state":"CA","name":"Port Hueneme","type":"S","id":"9411065","lat":34.1483,"lng":-119.203},{"state":"","name":"Mugu Lagoon (ocean pier)","type":"S","id":"TWC0445","lat":34.1,"lng":-119.1},{"state":"","name":"Santa Barbara Island","type":"S","id":"TWC0463","lat":33.48333333333299,"lng":-119.03333333333005},{"state":"CA","name":"Wilson Cove, San Clemente Island","type":"R","id":"9410032","lat":33.005001068115234,"lng":-118.55699920654297},{"state":"CA","name":"Catalina Harbor, Santa Catalina Island","type":"S","id":"9410092","lat":33.4317,"lng":-118.503},{"state":"CA","name":"Santa Monica, Municipal Pier","type":"R","id":"9410840","lat":34.0083,"lng":-118.5},{"state":"CA","name":"El Segundo, Santa Monica Bay","type":"S","id":"9410777","lat":33.9083,"lng":-118.433},{"state":"CA","name":"King Harbor, Santa Monica Bay","type":"S","id":"9410738","lat":33.8467,"lng":-118.398},{"state":"CA","name":"Avalon, Santa Catalina Island","type":"R","id":"9410079","lat":33.345001220703125,"lng":-118.32499694824219},{"state":"CA","name":"Cabrillo Beach","type":"S","id":"9410650","lat":33.7067,"lng":-118.273},{"state":"CA","name":"LOS ANGELES (Outer Harbor)","type":"R","id":"9410660","lat":33.71994444444444,"lng":-118.2728611111111},{"state":"","name":"Los Angeles Harbor, Mormon Island","type":"S","id":"TWC0439","lat":33.75,"lng":-118.26666666666995},{"state":"CA","name":"Long Beach, Terminal Island","type":"R","id":"9410680","lat":33.7517,"lng":-118.227},{"state":"CA","name":"Long Beach, Inner Harbor","type":"S","id":"9410686","lat":33.7717,"lng":-118.21},{"state":"","name":"Los Patos (highway bridge)","type":"S","id":"TWC0427","lat":33.71666666666701,"lng":-118.05},{"state":"CA","name":"Santa Ana River entrance (inside)","type":"S","id":"9410599","lat":33.63,"lng":-117.958},{"state":"CA","name":"Balboa Pier, Newport Beach","type":"S","id":"9410583","lat":33.6,"lng":-117.9},{"state":"CA","name":"Newport Bay Entrance, Corona del Mar","type":"R","id":"9410580","lat":33.6033,"lng":-117.883},{"state":"","name":"San Clemente","type":"S","id":"TWC0419","lat":33.416666666667005,"lng":-117.61666666666996},{"state":"CA","name":"La Jolla (Scripps Institution Wharf)","type":"R","id":"9410230","lat":32.86688888888889,"lng":-117.2571388888889},{"state":"CA","name":"San Diego, Quarantine Station","type":"S","id":"9410166","lat":32.7033,"lng":-117.235},{"state":"","name":"Point Loma","type":"S","id":"TWC0405","lat":32.666666666667005,"lng":-117.23333333333005},{"state":"","name":"Quivira Basin, Mission Bay","type":"S","id":"TWC0413","lat":32.76666666666701,"lng":-117.23333333333005},{"state":"","name":"Mission Bay, Campland","type":"R","id":"9410196","lat":32.793701171875,"lng":-117.22380065917969},{"state":"CA","name":"SAN DIEGO (Broadway)","type":"R","id":"9410170","lat":32.71419444444445,"lng":-117.1735833333333},{"state":"CA","name":"Imperial Beach","type":"S","id":"9410120","lat":32.5783,"lng":-117.135},{"state":"CA","name":"National City, San Diego Bay","type":"S","id":"9410152","lat":32.665,"lng":-117.118},{"state":"CA","name":"South San Diego Bay","type":"R","id":"9410135","lat":32.62910079956055,"lng":-117.10780334472656},{"state":"","name":"Ensenada, Todos Santos Bay","type":"S","id":"TWC0403","lat":31.85,"lng":-116.63333333333004},{"state":"","name":"Isla Guadalupe","type":"S","id":"TWC0401","lat":28.883333333332992,"lng":-116.3},{"state":"","name":"San Carlos","type":"S","id":"TWC0399","lat":24.78333333333299,"lng":-112.11666666666996},{"state":"","name":"Easter Island (Chile)","type":"S","id":"TPT2819","lat":-27.13333333333333,"lng":-109.45},{"state":"","name":"Shonian Harbor","type":"S","id":"TPT2631","lat":7.05,"lng":134.2666666666701},{"state":"","name":"MALAKAL HARBOR","type":"S","id":"1841275","lat":7.33,"lng":134.463},{"state":"","name":"Koror","type":"S","id":"TPT2633","lat":7.35,"lng":134.4833333333299},{"state":"","name":"West Passage","type":"S","id":"TPT2637","lat":7.5,"lng":134.5166666666701},{"state":"","name":"Ifalik Atoll","type":"S","id":"TPT2647","lat":7.25,"lng":144.45},{"state":"","name":"APRA HARBOR, GUAM","type":"R","id":"1630000","lat":13.44338888888889,"lng":144.6563611111111},{"state":"","name":"Pago Bay, Guam","type":"R","id":"1631428","lat":13.428299903869629,"lng":144.7969970703125},{"state":"","name":"Rota Island","type":"S","id":"TPT2627","lat":14.1333,"lng":145.1333},{"state":"","name":"Tinian Island","type":"S","id":"TPT2625","lat":14.966666666667008,"lng":145.61666666667008},{"state":"","name":"Saipan Harbor, Saipan Island","type":"S","id":"TPT2623","lat":15.2,"lng":145.71666666667008},{"state":"","name":"Tanapag Harbor, Saipan Island","type":"R","id":"1633227","lat":15.2267,"lng":145.737},{"state":"","name":"Pagan Island","type":"S","id":"TPT2621","lat":18.1333,"lng":145.76666},{"state":"","name":"Pulap Atoll","type":"S","id":"TPT2651","lat":7.633333333333304,"lng":149.41666666667007},{"state":"","name":"Namonuito Atoll","type":"S","id":"TPT2653","lat":8.583333333333297,"lng":149.65},{"state":"","name":"Nomwin Atoll, Hall Islands","type":"S","id":"TPT2655","lat":8.45,"lng":151.78333333332992},{"state":"","name":"CHUUK, Moen Island","type":"R","id":"1840000","lat":7.44667,"lng":151.847},{"state":"","name":"Moen Island, Truk Islands","type":"S","id":"TPT2659","lat":7.45,"lng":151.85},{"state":"","name":"Dublon Island, Truk Islands","type":"S","id":"TPT2661","lat":7.366666666666704,"lng":151.88333333332992},{"state":"","name":"Murilo Atoll, Hall Islands","type":"S","id":"TPT2657","lat":8.6,"lng":152.25},{"state":"","name":"Losap Atoll","type":"S","id":"TPT2663","lat":6.9,"lng":152.7333333333299},{"state":"","name":"Namoluk Atoll","type":"S","id":"TPT2665","lat":5.9,"lng":153.13333333332992},{"state":"","name":"Satawan Anchorage, Nomoi Islands","type":"S","id":"TPT2667","lat":5.333333333333304,"lng":153.7333333333299},{"state":"","name":"Eniirikku Island, Bikini Atoll","type":"S","id":"TPT2689","lat":11.5,"lng":165.33333333332993},{"state":"","name":"Bikini Atoll","type":"S","id":"TPT2687","lat":11.6,"lng":165.55},{"state":"","name":"Ujae Atoll","type":"S","id":"TPT2695","lat":9.033333333333296,"lng":165.6},{"state":"","name":"WAKE ISLAND (U.S.)","type":"R","id":"1890000","lat":19.29066666666667,"lng":166.6175833333333},{"state":"","name":"Rongelap Island, Rongelap Atoll","type":"S","id":"TPT2691","lat":11.15,"lng":166.9},{"state":"","name":"Kwajalein Atoll (Namur Island)","type":"S","id":"TPT2697","lat":9.4,"lng":167.4833333333299},{"state":"","name":"Rongerik Atoll","type":"S","id":"TPT2693","lat":11.383333333333008,"lng":167.5166666666701},{"state":"","name":"KWAJALEIN ATOLL (Kwajalein I.)","type":"R","id":"1820000","lat":8.731666564941406,"lng":167.7361145019531},{"state":"","name":"Ebon (Boston) Atoll","type":"S","id":"TPT2705","lat":4.6,"lng":168.68333333332993},{"state":"","name":"Ailinglapalap Atoll","type":"S","id":"TPT2701","lat":7.283333333333304,"lng":168.75},{"state":"","name":"Taongi Atoll","type":"S","id":"TPT2707","lat":14.566666666667007,"lng":168.95},{"state":"","name":"Likiep Atoll","type":"S","id":"TPT2713","lat":9.816666666666704,"lng":169.31666666667007},{"state":"","name":"Ocean Island","type":"S","id":"TPT2735","lat":-0.86666666666667,"lng":169.58333333332993},{"state":"","name":"Jaluit Atoll (SE Pass)","type":"S","id":"TPT2703","lat":5.916666666666696,"lng":169.65},{"state":"","name":"Erikub Atoll","type":"S","id":"TPT2717","lat":9.2,"lng":169.91666666667007},{"state":"","name":"Niue Island (N.Z.)","type":"S","id":"TPT2891","lat":-19.03333333333299,"lng":169.91666666667007},{"state":"","name":"Ailuk Atoll","type":"S","id":"TPT2711","lat":10.216666666667008,"lng":169.9833333333299},{"state":"","name":"Bikar (Dawson) Atoll","type":"S","id":"TPT2709","lat":12.25,"lng":170.13333333332992},{"state":"","name":"Wotje Atoll","type":"S","id":"TPT2715","lat":9.466666666666704,"lng":170.2333333333299},{"state":"","name":"Maloelap Atoll","type":"S","id":"TPT2719","lat":8.716666666666704,"lng":171.2333333333299},{"state":"","name":"Majuro Atoll","type":"S","id":"TPT2721","lat":7.116666666666704,"lng":171.36666666667008},{"state":"","name":"Arno Atoll","type":"S","id":"TPT2723","lat":7.133333333333304,"lng":171.7},{"state":"","name":"Port Rhin, Mili Atoll","type":"S","id":"TPT2725","lat":6.233333333333296,"lng":171.8},{"state":"","name":"Makin Atoll","type":"S","id":"TPT2727","lat":3.0333333333333,"lng":172.8},{"state":"","name":"Steller Cove","type":"S","id":"TWC2319","lat":52.96670150756836,"lng":172.89999389648438},{"state":"","name":"Tarawa Atoll","type":"S","id":"TPT2729","lat":1.3666666666667,"lng":172.93333333332993},{"state":"","name":"Holtz Bay","type":"S","id":"TWC2317","lat":52.91669845581055,"lng":173.1667022705078},{"state":"AK","name":"MASSACRE BAY","type":"R","id":"9460150","lat":52.84000015258789,"lng":173.19500732421875},{"state":"","name":"Chichagof Harbor","type":"S","id":"TWC2315","lat":52.91669845581055,"lng":173.21670532226562},{"state":"","name":"Otkriti Bay, Agattu Island","type":"S","id":"TWC2311","lat":52.36669921875,"lng":173.61669921875},{"state":"","name":"Abemama Atoll","type":"S","id":"TPT2731","lat":0.46666666666667,"lng":173.83333333332993},{"state":"","name":"Alcan Harbor, Shemya Island","type":"S","id":"TWC2309","lat":52.71670150756836,"lng":174.0666961669922},{"state":"","name":"Nonouti Atoll","type":"S","id":"TPT2733","lat":-0.66666666666667,"lng":174.45},{"state":"","name":"Nomuka","type":"S","id":"TPT2897","lat":-20.26666666666667,"lng":174.79},{"state":"","name":"Gertrude Cove, Kiska Island","type":"S","id":"TWC2305","lat":51.93330001831055,"lng":177.4499969482422},{"state":"","name":"Kiska Harbor, Kiska Island","type":"S","id":"TWC2307","lat":51.983299255371094,"lng":177.5500030517578},{"state":"","name":"Ngaloa Harbor, Kandavu Island","type":"S","id":"TPT2873","lat":-19.06666666666667,"lng":178.1666666666667},{"state":"","name":"SUVA HARBOR, Viti Levu Island","type":"R","id":"1910000","lat":-18.1333,"lng":178.425},{"state":"","name":"Nandi, Vanua Levu Island","type":"S","id":"TPT2889","lat":-16.96666666666667,"lng":178.7666666666667},{"state":"","name":"Levuka, Ovalau Island","type":"S","id":"TPT2887","lat":-17.66666666666667,"lng":178.8333333333333},{"state":"","name":"Ngau Island","type":"S","id":"TPT2883","lat":-18,"lng":179.2166666666667},{"state":"","name":"Constantine Harbor, Amchitka Island","type":"S","id":"TWC2303","lat":51.41669845581055,"lng":179.28329467773438},{"state":"","name":"Nairai Island","type":"S","id":"TPT2885","lat":-17.8,"lng":179.3666666666667},{"state":"","name":"Matuku Island","type":"S","id":"TPT2875","lat":-19.16666666666667,"lng":179.75},{"state":"","name":"Moala Island","type":"S","id":"TPT2879","lat":-18.51666666666667,"lng":179.9666666666667}]